{
"type": "FeatureCollection",
"name": "消防施設",
"crs": { "type": "name", "properties": { "name": "urn:ogc:def:crs:OGC:1.3:CRS84" } },
"features": [
{ "type": "Feature", "properties": { "種別": "消防署分署", "名称": "東分署", "住所": "焼津市焼津6-5-18" }, "geometry": { "type": "Point", "coordinates": [ 138.318137511223796, 34.864211427913233 ] } },
{ "type": "Feature", "properties": { "種別": "消防署分署", "名称": "焼津消防署", "住所": "焼津市石津728-2" }, "geometry": { "type": "Point", "coordinates": [ 138.30932999824762, 34.843039998929498 ] } },
{ "type": "Feature", "properties": { "種別": "消防署分署", "名称": "大井川分署", "住所": "焼津市宗高909-1" }, "geometry": { "type": "Point", "coordinates": [ 138.285829998611376, 34.804739991633475 ] } },
{ "type": "Feature", "properties": { "種別": "消防団本部", "名称": "消防団本部", "住所": "焼津市石津728-2" }, "geometry": { "type": "Point", "coordinates": [ 138.309662213636386, 34.843067771427357 ] } },
{ "type": "Feature", "properties": { "種別": "分団車庫・詰所", "名称": "1", "住所": "焼津市城之腰 134-2" }, "geometry": { "type": "Point", "coordinates": [ 138.323864441665677, 34.861996660090327 ] } },
{ "type": "Feature", "properties": { "種別": "分団車庫・詰所", "名称": "2", "住所": "焼津市焼津 2-7-1" }, "geometry": { "type": "Point", "coordinates": [ 138.314335552043275, 34.865900830188224 ] } },
{ "type": "Feature", "properties": { "種別": "分団車庫・詰所", "名称": "3", "住所": "焼津市本町 2-1-17" }, "geometry": { "type": "Point", "coordinates": [ 138.321277776359068, 34.868126386260492 ] } },
{ "type": "Feature", "properties": { "種別": "分団車庫・詰所", "名称": "4", "住所": "焼津市駅北 3-11-16" }, "geometry": { "type": "Point", "coordinates": [ 138.313901660652419, 34.873269164539032 ] } },
{ "type": "Feature", "properties": { "種別": "分団車庫・詰所", "名称": "5", "住所": "焼津市八楠 1-18-1" }, "geometry": { "type": "Point", "coordinates": [ 138.305569436553668, 34.882075826726457 ] } },
{ "type": "Feature", "properties": { "種別": "分団車庫・詰所", "名称": "6", "住所": "焼津市浜当目 2-10-18" }, "geometry": { "type": "Point", "coordinates": [ 138.330988607760474, 34.878556937383898 ] } },
{ "type": "Feature", "properties": { "種別": "分団車庫・詰所", "名称": "7", "住所": "焼津市坂本 973" }, "geometry": { "type": "Point", "coordinates": [ 138.310791940050848, 34.892189718605245 ] } },
{ "type": "Feature", "properties": { "種別": "分団車庫・詰所", "名称": "7", "住所": "焼津市吉津 78-1" }, "geometry": { "type": "Point", "coordinates": [ 138.331205822488016, 34.900370831374438 ] } },
{ "type": "Feature", "properties": { "種別": "分団車庫・詰所", "名称": "8", "住所": "焼津市小土 1154-1" }, "geometry": { "type": "Point", "coordinates": [ 138.286607776278856, 34.86230721615609 ] } },
{ "type": "Feature", "properties": { "種別": "分団車庫・詰所", "名称": "9", "住所": "焼津市東小川 7-12-13" }, "geometry": { "type": "Point", "coordinates": [ 138.311278885674227, 34.851944720190467 ] } },
{ "type": "Feature", "properties": { "種別": "分団車庫・詰所", "名称": "10", "住所": "焼津市小川新町 4-6-23" }, "geometry": { "type": "Point", "coordinates": [ 138.320804162147539, 34.853584719186124 ] } },
{ "type": "Feature", "properties": { "種別": "分団車庫・詰所", "名称": "11", "住所": "焼津市石津向町 25-16" }, "geometry": { "type": "Point", "coordinates": [ 138.32053443917701, 34.841107498772359 ] } },
{ "type": "Feature", "properties": { "種別": "分団車庫・詰所", "名称": "12", "住所": "焼津市中新田 518-1" }, "geometry": { "type": "Point", "coordinates": [ 138.294778332849489, 34.83901443707564 ] } },
{ "type": "Feature", "properties": { "種別": "分団車庫・詰所", "名称": "13", "住所": "焼津市三和 115-1" }, "geometry": { "type": "Point", "coordinates": [ 138.300836658754861, 34.822830270186152 ] } },
{ "type": "Feature", "properties": { "種別": "分団車庫・詰所", "名称": "14", "住所": "焼津市田尻 2002" }, "geometry": { "type": "Point", "coordinates": [ 138.322202211967948, 34.827092493745646 ] } },
{ "type": "Feature", "properties": { "種別": "分団車庫・詰所", "名称": "15", "住所": "焼津市田尻北 682-3" }, "geometry": { "type": "Point", "coordinates": [ 138.330700823114995, 34.836255273594119 ] } },
{ "type": "Feature", "properties": { "種別": "分団車庫・詰所", "名称": "16", "住所": "焼津市宗高 856-1" }, "geometry": { "type": "Point", "coordinates": [ 138.288042767668031, 34.800391104313704 ] } },
{ "type": "Feature", "properties": { "種別": "分団車庫・詰所", "名称": "16", "住所": "焼津市藤守 537" }, "geometry": { "type": "Point", "coordinates": [ 138.303971935350916, 34.809339992598616 ] } },
{ "type": "Feature", "properties": { "種別": "分団車庫・詰所", "名称": "17", "住所": "焼津市下江留 1848" }, "geometry": { "type": "Point", "coordinates": [ 138.272630832840946, 34.810714995998936 ] } },
{ "type": "Feature", "properties": { "種別": "分団車庫・詰所", "名称": "17", "住所": "焼津市相川 709" }, "geometry": { "type": "Point", "coordinates": [ 138.262824718047426, 34.807078048133178 ] } },
{ "type": "Feature", "properties": { "種別": "分団車庫・詰所", "名称": "18", "住所": "焼津市吉永 492-8" }, "geometry": { "type": "Point", "coordinates": [ 138.29531082524133, 34.793564157718755 ] } },
{ "type": "Feature", "properties": { "種別": "分団車庫・詰所", "名称": "18", "住所": "焼津市高新田 1853-1" }, "geometry": { "type": "Point", "coordinates": [ 138.307137768008289, 34.794106109469674 ] } }
]
}
