NO,都道府県コード又は市区町村コード,都道府県名,市区町村名,名称,名称_カナ,住所,方書,緯度,経度,電話番号,備考
1,222127,静岡県,焼津市,消防防災センター防災備蓄倉庫,ショウボウボウサイセンターボウサイビチクソウコ,静岡県焼津市石津728-2,,34.84301996,138.3093363,(054)623-2554,
2,222127,静岡県,焼津市,大井川防災備蓄倉庫,オオイガワボウサイビチクソウコ,静岡県焼津市宗高989-1,,34.80522914,138.283541,(054)623-2554,
3,222127,静岡県,焼津市,清見田公園防災備蓄倉庫,キヨミタコウエンボウサイビチクソウコ,静岡県焼津市三ケ名1626,,34.866386,138.305746,(054)623-2554,
4,222127,静岡県,焼津市,石津西公園防災備蓄倉庫,イシヅニシコウエンボウサイビチクソウコ,静岡県焼津市石津421-3,,34.842765,138.31363,(054)623-2554,
5,222127,静岡県,焼津市,焼津防災備蓄倉庫,ヤイヅボウサイビチクソウコ,静岡県焼津市焼津4-9-1,,34.8634014,138.3139624,(054)623-2554,
