都道府県コード又は市区町村コード,NO,都道府県名,市区町村名,名称,名称_カナ,名称_英語,POIコード,住所,方書,緯度,経度,利用可能曜日,開始時間,終了時間,利用可能日時特記事項,料金（基本）,料金（詳細）,説明,説明_英語,アクセス方法,駐車場情報,バリアフリー情報,連絡先名称,連絡先電話番号,連絡先内線番号,画像,画像_ライセンス,URL,備考,区分1,区分2,休業日,最大収容人数,バリアフリー対応,身障者用駐車場有り,車イスでの入店可能,車イストイレあり,多目的トイレあり,バリアフリーその他,バリアフリー詳細情報_他_備考,HP有無,焼津温泉,宿泊施設_部屋数,宿泊施設_温泉,タグ1,タグ2,タグ3,ふるさと納税,地図アイコン
222127,2024000001,静岡県,焼津市,焼津港　金寿し本店,ヤイヅコウキンズシホンテン,,,静岡県焼津市中港4-1-12,,34.87377,138.324198,,,,11:00～14:00（LO.13:30）　17:00～21:00は10名様以上の予約のみ,,,"焼津に来たならまず鮪握り。15貫1,100円より。
鮪丼1,100円より。夜と土日祝日は要予約。
",,,普15台/大型2台,,,054-627-0933　,,,,https://kinzusi.com/,【掲載先】焼津マップ,お食事,すし,火曜・水曜　,70人,有,,〇,,,,車いす用の簡易スロープあり。車いすのまま食事ができる。,有,,,,,マグロ;カツオ;桜エビ;シラス;サバ,,,restaurant
222127,2024000002,静岡県,焼津市,松乃寿司,マツノズシ,,,静岡県焼津市本町4-6-3,,34.86473,138.320935,,,,11:00～14:00(LO.13:30)/17:00～21:00（LO.20:30）,,,味にこだわり、シャリとネタ絶妙。近海物魚介類多く良心的な価格。一度は行ってみたい店（要予約）。,,,普10台/大型1台,,,054-627-6666,,,,https://yaizu-matsunosushi.com/,【掲載先】焼津マップ,お食事,すし,水曜,40人,有,,〇,,,,入口にスロープ有り。車いすのまま食事ができる。,有,,,,,マグロ;カツオ;桜エビ;シラス,,,restaurant
222127,2024000003,静岡県,焼津市,勇喜寿司,ユウキズシ,,,静岡県焼津市西小川2-5-16,,34.860281,138.309899,,,,11:00～13:30 ※日曜ランチはなし/17:00～22:00（LO.21:30）,,,"地魚と産地直送の寿司ネタを吟味。
極上南鮪もご賞味下さい。
",,,普9台/大型可　,,,054-627-3739,,,,http://www.yuki-zushi.com/,【掲載先】焼津マップ,お食事,すし,月曜・第3日曜,32人,有,,〇,,,,段差なく店内に入れる。カウンター、テーブルとも車イスのまま食事ができる。,有,,,,,マグロ;カツオ;シラス,,,restaurant
222127,2024000004,静岡県,焼津市,五金,ゴキン,,,静岡県焼津市柳新屋996-4,,34.860062,138.2918208,,,,11:30～LO.13:30 /16:30～LO.21:00,,,地元 焼津の魚だけでなく、旬のおいしい物にこだわり全国より仕入れをしています。お寿司はもちろんですが焼物、揚物、煮物などさまざまなお料理の楽しめるお店です。,,,普20台,,,054-627-5856,,,,https://gokin.jp/,【掲載先】焼津マップ,お食事,すし,年中無休,90人,有,,〇,,,,車いすでの来店はカウンター席のみ,有,,,,,マグロ;カツオ;サバ,,,restaurant
222127,2024000005,静岡県,焼津市,焼津港のめし処 与作鮨,ヤイヅコウノメシドコロヨサクズシ,,,静岡県焼津市道原690-1,,34.835497,138.307914,,,,10:00～14:00 /17:00～20:00　※月曜・水曜・木曜は昼営業のみ,,,地元の方々に愛されてきた【与作鮨】が移転し復活！圧倒的なコストパフォーマンスで、寿司や多彩な海鮮料理をご提供します。,,,普5台、軽1台,,,054-660-5235,,,,https://sushi-yosaku.jimdosite.com/,【掲載先】焼津マップ,お食事,すし,火曜（祝日の場合は翌日休）,25人,有,,〇,,,,,有,,,,,マグロ;カツオ;シラス;サバ,,,restaurant
222127,2024000006,静岡県,焼津市,寿司実本店,スシミホンテン,,,静岡県焼津市三和1167-2,,34.82795,138.297794,,,,11:00～14:00（LO.13:45）/17:00～21:00（LO.20:30）　　　　　,,,寿司ネタは天然の魚介類にこだわりを持つ店。昼定食各種、ふぐ料理(10月～3月)有り。,,,普20台/大型2台,,,054-624-3030,,,,http://www.sushimi-honten.com/,【掲載先】焼津マップ,お食事,すし,水曜,110人,有,,〇,〇,〇,,段差なく車イスのまま店内には入れる。テーブル席、座敷も車いすにて食事ができる。車イス対応トイレ有り。店内に手すりもあり。車いすの場合は先に電話をください。席を用意します。,有,,,,,マグロ;カツオ;桜エビ;シラス;サバ,,,restaurant
222127,2024000007,静岡県,焼津市,食事処　かどや,ショクジドコロカドヤ,,,静岡県焼津市中港3-4-31,,34.87393,138.325808,,,,11:00～14:00（LO.13:30）/17:00～20:00（LO.19:30）,,,旧焼津港近（サンライフ焼津隣）。刺身類に自信を持つ漁師の町らしい店。気軽な食事処。さしみ定食など。 ,,,普15台/大型要予約,,,054-628-4951,,,,https://www.yaizu.gr.jp/spot/1349,【掲載先】焼津マップ,お食事,和食,月曜(祝日の場合は翌日休)・火曜(月２回),40人,有,,〇,,,,玄関前スロープ有り。トイレに手すり有り。車いすのお客様も対応できるテーブル有り。,無,,,,,マグロ;カツオ;シラス,,,restaurant
222127,2024000008,静岡県,焼津市,ひとすき,ヒトスキ,,,静岡県焼津市栄町1-8-13,,34.87115,138.316868,,,,11:00～14:00/17:00～22:00,,,お一人様でも美味しいすき焼きと各種お鍋を楽しめます。グループでもお一人様ずつのお鍋でご用意。ご予約歓迎。,,,普2台,,,054-629-8011,,,,https://www.instagram.com/hitosuki8011/,【掲載先】焼津マップ,お食事,和食,不定休,20人,無,,,,,,,無,,,,,,,,restaurant
222127,2024000009,静岡県,焼津市,磯料理　黒潮,イソリョウリクロシオ,,,静岡県焼津市栄町6-7-8,,34.869172,138.316828,,,,11:30～15:00（LO.14:00）/17:00～22:30（LO21:00）　日曜17:00～21:00（LO20:00）,,,"鮪・鰹料理（鮪の頭焼等）など魚料理が充実！昼定食1,000円、2,000円　夜定食2,420円～　カブト（大）8,250円（要予約）カブト（小）2,750円　",,,普20台/大型可,,,054-628-3918,,,,http://www.yaizu-kuroshio.com/,【掲載先】焼津マップ,お食事,和食,月曜(祝日の場合は翌日休),70人,有,,〇,,,,車いす入店可。車いす用トイレなし,有,,,,,マグロ;カツオ;桜エビ,,,restaurant
222127,2024000010,静岡県,焼津市,旬魚や　魚いち,シュンギョヤウオイチ,,,静岡県焼津市栄町4-3-3,,34.869247,138.320254,,,,11:00～14:00　夜は予約のみ,,,焼津・小川港直送の鮪・鰹・地魚あります。海鮮丼・まぐろ丼・お刺身盛合せ定食各種定食・丼物あり。,,,普8台,,,054-628-3662,,,,https://www.yaizu.gr.jp/spot/2130,【掲載先】焼津マップ,お食事,和食,月曜(祝日の場合は翌日休),23人,無,,,,,,,無,,,,,マグロ;カツオ,,,restaurant
222127,2024000011,静岡県,焼津市,食事処　トミヤ,ショクジドコロトミヤ,,,静岡県焼津市中港2-5-2,,34.871375,138.323641,,,,7:00～14:00/17:00～19:00,,,早朝より営業。刺し身定食・マグロ丼・海鮮丼ほか。時期により、おでんや桜えびの天ぷらも。,,,普4台/大型要相談,,,054-628-4672,,,,http://shizuoka.j47.jp/tomiya/,【掲載先】焼津マップ,お食事,和食,日曜,20人,無,,,,,,※ラストオーダーは特になし,有,,,,,マグロ;桜エビ,,,restaurant
222127,2024000012,静岡県,焼津市,魚が旨い店　大漁やまちやん,サカナガウマイミセタイリョウヤマチャン,,,静岡県焼津市中港2-7-2,,34.870282,138.323865,,,,11:30～14:00（LO.13:30）/17:00～22:00（LO.21:30）※現在コロナの為21:00に閉店,,,まぐろにこだわり地酒にも合う新鮮な魚料理各種。舟盛り合せ（18種）、たっぷり桜えびのかき揚げなど。,,,普11台,,,054-629-1919,,,,https://www.yaizu.gr.jp/spot/1863,【掲載先】焼津マップ,お食事,和食,月曜(祝日の場合は翌日休),40人,無,,,,,,,無,,,,,マグロ;カツオ;桜エビ;シラス,,,restaurant
222127,2024000013,静岡県,焼津市,かく万,カクマン,,,静岡県焼津市栄町5-4-7,,34.86692,138.319981,,,,11:00～LO.13:30/17:00～22:00（LO.21:30）,,,"仕出し料理・宴会・法事等を予約にて承ります。
一階ではお食事など予約なしでできます。",,,普10台,,,054-628-4088,,,,https://kakuman.co.jp/,【掲載先】焼津マップ,お食事,和食,水曜・第2火曜,60人,無,,,,,,,有,,,,,マグロ;カツオ;ウナギ;桜エビ,,,restaurant
222127,2024000014,静岡県,焼津市,赤万・万海亭,アカマンマンカイテイ,,,静岡県焼津市本町2-18-4,,34.866458,138.323408,,,,"11:00～14:00（LO.13:45）/17:30～LO.20:30 (予約のみ・当日14:00迄　)　※ご宴会・ご法事等のご予約は時間外でも承ります
",,,"当店は静岡・焼津・小川魚市場の仲買人の直営店です。自慢は海鮮もの、まぐろをはじめ天然素材にこだわります。
",,,普10台/大型応相談,,,054-629-1211,,,,http://plaza.rakuten.co.jp/mankai/,【掲載先】焼津マップ,お食事,和食,月曜（不定休もあり）,１F24人（いす・テーブル席）/2F60人（たたみ席）,有,,〇,,,,入口にスロープ有り、店内床はフラット。但し、トイレ内に車いすは入れません。,有,,,,,マグロ,,,restaurant
222127,2024000015,静岡県,焼津市,ふぐ・かに・活魚・カウンター天婦羅　たち吉,フグカニカツギョカウンターテンプラタチキチ,,,静岡県焼津市焼津4-6-21,,34.861906,138.314144,,,,11:30～14:00（LO13:30）/17:00～22:00（LO.21:00）,,,極上南鮪、焼津港の地魚料理・季節コース料理・お座敷カウンター天婦羅・下関直送ふぐ料理など。地酒は磯自慢と初亀をご用意。,,,普20台/大型1台,,,054-627-5771,,,,http://www.yaizu-tachikichi.com/,【掲載先】焼津マップ;【その他連絡先】0120-185-771,お食事,和食,月曜(祝日の場合は翌日休),60人,有,〇,〇,,,,トイレは廊下が狭いので、車イスでは通れない,有,,,,,マグロ;桜エビ,,,restaurant
222127,2024000016,静岡県,焼津市,焼津ひもの食堂,ヤイヅヒモノショクドウ,,,静岡県焼津市八楠1-3-17,,34.8819532,138.3068591,,,,直売所9:00～14:00　食堂11:00～14:00（LO.13:45）,,,毎朝開いている干したてのひものを炭火焼で提供。「塩糀」に漬けて干す独自の製法で旨みの強いひものに仕上がっています。,,,普8台,,,054-626-8400,,,,https://www.yamakuni.info/,【掲載先】焼津マップ,お食事,和食,水曜,15人,無,,,,,,,有,,,,,,,,restaurant
222127,2024000017,静岡県,焼津市,ヤマクニ水産焼津さかなセンター店,ヤマクニスイサンヤイヅサカナセンター,,,静岡県焼津市八楠4-13-7,,34.88019874,138.3028146,,,,9:00～15:00,,,【オープンデータ用】毎朝開いている干したてのひものを販売。「塩糀」に漬けて干す独自の製法で旨みの強いひものに仕上がっています。,,,焼津さかなセンターに準じる,,,054-626-8400,,,,https://www.yamakuni.info/,【掲載先】焼津マップ,お買い物,魚・水産加工品,隔週水曜,,有,〇,〇,〇,〇,,さかなセンターに準ずる,有,,,,,,,,shop
222127,2024000018,静岡県,焼津市,小川港（こがわこう）魚河岸食堂,コガワコウウオガシショクドウ,,,静岡県焼津市小川3392-9,,34.851005,138.326075,,,,7:00～14:00(LO.13:45)（土曜は10:00～14:00）※閉店が早まる場合あり,,,地元魚仲買人組合直営店！漁師、さかな屋も集う店。一般の方大歓迎！！豊富なメニューでお待ちしております。,,,普40台,,,054-624-6868,,,,https://www.yaizu-uonaka.or.jp/uogashi/,【掲載先】焼津マップ,お食事,和食,年末年始,100人,有,,〇,〇,〇,,店内はフラットな床、但し、入口に段差有り。,有,,,,,マグロ;カツオ;桜エビ;シラス;サバ,,,restaurant
222127,2024000019,静岡県,焼津市,魚家　ととや,トトヤ,,,静岡県焼津市道原３,,34.837373,138.308918,,,,11:30～14:00(LO.13:30)/17:30～23:00ころ（LO.22:00ころ）,,,地元、小川港で直接買付けるので地魚しかありません。地魚料理もたくさんご用意しております。是非お楽しみください。,,,普20台/大型２台,,,054-623-7505,,,,http://yaizu-totoya.com/,【掲載先】焼津マップ,お食事,和食,日曜,36人,有,,〇,,,,,有,,,,,マグロ;カツオ,,,restaurant
222127,2024000020,静岡県,焼津市,日本料理　中重（なかじゅう）,ニホンリョウリナカジュウ,,,静岡県焼津市道原768-4,,34.83613,138.302932,,,,11:00～14:00/17:30～21:30,,,焼津の奥座敷として親しまれるお店。会席料理・ふぐ・すっぽんなど本格的日本料理をご堪能ください。,,,普40台/大型2台,,,054-623-4568,,,,https://nakajyuu.jp/,【掲載先】焼津マップ,お食事,和食,火曜,15人　完全予約制,無,,,,,,,有,,,,,マグロ;ウナギ,,,restaurant
222127,2024000021,静岡県,焼津市,岩久大富店,イワキュウオオトミテン,,,静岡県焼津市石津253-3,,34.837146,138.311254,,,,11:00～14:30（LO.14:00）,,,毎日食べても飽きないそば。ざる汁、甘汁（温かい汁）とも焼津産の鰹節をたっぷり使用。季節限定品もありお楽しみワクワクです。,,,普13台,,,054-624-7111,,,,https://www.yaizu.gr.jp/spot/2845,【掲載先】焼津マップ,お食事,和食,木曜・日曜・祝日,32人,有,,〇,,,,車いすでカウンターテーブルに座れる。トイレは車いすが入れるスペースがある。,無,,,,,,,,restaurant
222127,2024000022,静岡県,焼津市,海賊料理　舟小屋,カイセンリョウリフナゴヤ,,,静岡県焼津市田尻北1628-2,,34.836264,138.335031,,,,11:00～15:00（LO.14:30) 　※LO過ぎてもデザートはOK。席はゆっくりしてもらって大丈夫/17:00～22:00（LO21:00）,,,和田浜海岸すぐそば。新鮮地魚。定食・コース・寿司・ふぐ・お子様メニュー・ご結納・宴会・法事も承ります。,,,普40台/大型4台,,,054-624-5483,,,,http://www.funagoya.net/,【掲載先】焼津マップ,お食事,和食,月曜(祝日の場合は翌日休)不定休有,200人(大広間80人）,有,〇,〇,〇,,個室の場合は従業員が車いすを持ち上げてよければ利用できます,段差なく店内に入れる。車いすのまま食事ができる。（個室ではない。７人くらいまで。）男女別の身障者用トイレ有り。,有,,,,,マグロ;カツオ;桜エビ;シラス;ウナギ;サバ,,,restaurant
222127,2024000023,静岡県,焼津市,まる忠　鰻,マルチュウウナギ,,,静岡県焼津市下江留1450-1,,34.811408,138.274313,,,,11:00～15:00（LO.14:00 ）/17:00～20:00（LO.19:00）,,,良質の鰻と創業以来の「つぎたし　つぎたし」で引き継がれた秘伝のタレ、確かな技術と絶妙な焼き加減。,,,普30台/大型1台　,,,054-622-0407,,,,https://unagi-maruchu.com/,【掲載先】焼津マップ,お食事,和食,月曜(祝日の場合は翌日休),90人,有,,〇,,,,出入口にスロープ、手すり有り。車いすで食事ができる。身障者用トイレ無し。,有,,,,,ウナギ,,,restaurant
222127,2024000024,静岡県,焼津市,焼津港 丸入商店,ヤイヅコウ　マルイリショウテン,,,静岡県焼津市宗高1474-3,,34.808816,138.2779,,,,お食事処「波なれ」11:00～14:30（LO.14:00）　物販店:11:00～18:00,,,2023年6月オープン！「本当に美味しい魚を食べてもらいたい」をコンセプトに漬け魚、天然まぐろを中心に食堂と物販店を併設。,,,店舗敷地内 普 10台　第2駐車場　普40台　,,,054-631-4031,,,,https://yaizumaruiri.jp/,【掲載先】焼津マップ,お食事,和食,月曜,40人,有,〇,〇,〇,〇,,,有,,,,,マグロ,,,restaurant
222127,2024000025,静岡県,焼津市,大井川港漁協直営食堂「さくら」,オオイガワコウギョキョウチョクエイショクドウサクラ,,,静岡県焼津市飯淵1960,,34.783553,138.294513,,,,10:30～14:00,,,全国でここ駿河湾でしか水揚げされない桜エビと前浜で水揚げされたしらすを使った新鮮な各種丼ぶり！,,,普50台,,,054-622-0415,,,,http://www.oigawako-gyokyo.com/dining/,【掲載先】焼津マップ,お食事,和食,月曜・火曜・水曜（祝日関係なく）　盆・年末年始,60人,有,,〇,,,,スロープ、手すり有り。,有,,,,,桜エビ;シラス,,,restaurant
222127,2024000026,静岡県,焼津市,磯料理　みなと家,イソリョウリミナトヤ,,,静岡県焼津市飯淵2153,,34.779478,138.296555,,,,11 :00～14:00（LO.13:50）/17:00～21:00（LO.20:30）,,,大井川港ならではの四季折々の新鮮多彩な旬の幸をお楽しみください。,,,普20台/大型1台,,,054-622-0362,,,,https://www.minatoya-ryouri.com/,【掲載先】焼津マップ,お食事,和食,水曜・年末年始・臨時休業有り,100人,有,〇,〇,,,,車いすにて入店可能席有り。段差無し。トイレ無し。,有,,,,,マグロ;桜エビ;シラス;ウナギ,,,restaurant
222127,2024000027,静岡県,焼津市,mucho Mexican Dining,ムーチョメキシカンダイニング,,,静岡県焼津市栄町1-8-14　デイジービル２Ｆ,,34.8711937,138.3167112,,,,17:00～24:00（LO.23:00 ）,,,焼津発！本格メキシカンダイナー。駅近徒歩2分。お気軽にお立ち寄りください。,,,なし,,,054-269-4134,,,,https://www.instagram.com/yaizu.mucho/,【掲載先】焼津マップ,お食事,洋食,日曜(月曜が祝日の場合は日曜営業し月曜休み),40人,無,,,,,,,有,,,,,,,,restaurant
222127,2024000028,静岡県,焼津市,Piatto Alla Carta Senta!（ピアット　アッラ　カルタ　センタ！）,ピアットアッラカルタセンタ,,,静岡県焼津市栄町1-8-13丸合第二ビル１階右,,34.871106,138.316886,,,,17:00～24:00(LO.23:00),,,"焼津駅近くのイタリア料理店です。
イタリア各州のワインを取り揃えてお待ちしております。
",,,普2台,,,054-620-9911,,,,http://www.ceres.dti.ne.jp/mon/,【掲載先】焼津マップ,お食事,洋食,日曜,35人,無,,,,,,,有,,,,,,,,restaurant
222127,2024000029,静岡県,焼津市,カフェレストラン　山正亭,カフェレストランヤマショウテイ,,,静岡県焼津市栄町4-2-2,,34.869995,138.319785,,,,"ランチ 11:30～14:30（LO.14:00）
ディナー 17:30～22:00 （LO.21:00）",,,駅前通り商店街の中にある洋食店です。コーヒーからオムライス、ステーキまで、お気軽にお立ち寄りください。,,,普1台,,,054-629-0730,,,,,【掲載先】焼津マップ,お食事,洋食,月曜・火曜,18人,無,,,,,,,無,,,,,,,,restaurant
222127,2024000030,静岡県,焼津市,グリルSASAYA,グリルササヤ,,,静岡県焼津市焼津4-9-19,,34.862991,138.313688,,,,11:00～LO.14:00/17:00～LO.21:00,,,"全国的にもめずらしい「梅かつおオムライス」や「深海ザメ料理」がオススメ！
",,,普10台,,,054-627-0234,,,,https://sasayaomuraisu.amebaownd.com/,【掲載先】焼津マップ,お食事,洋食,水曜,40人,無,,,,,,,有,,,,,カツオ;サバ,,,restaurant
222127,2024000031,静岡県,焼津市,Portugal cafe 南蛮亭,ポルトガルカフェナンバンテイ,,,静岡県焼津市浜当目3‐15-33,,34.87928,138.335027,,,,"モーニング9:00～11:00/ランチ　11:00～14:00
/ティータイム14:00～17:00/ディナー17:30～20:00（ディナーは要予約） ",,,"眼の前に広がる焼津の海を眺めながら、ゆったりとお食事、大切な人との時間をお楽しみください。
",,,普通4台,,,054-620-5199,,,,https://peraichi.com/landing_pages/view/nanbantei/,【掲載先】焼津マップ,お食事,洋食,月曜・火曜・荒天時,店内20人・テラス席8人・ガーデン20人,無,,,,,,,有,,,,,,,,restaurant
222127,2024000032,静岡県,焼津市,四代目　肉の良知,ヨンダイメニクノラチ,,,静岡県焼津市焼津4-3-7,,34.862037,138.315178,,,,ランチ 11:30～14:00（LO.13:30）/ディナー　平日18:00～21:00（LO.20:30）土日祝17:30～21:00（LO.20:30）,,,"ランチ限定の1日5食のローストビーフ重（1,210円）。低温調理で仕上げたローストビーフは絶品です！！",,,普10台,,,050-1195-0242,,,,https://niku-kanemaru.com/71793/%E5%9B%9B%E4%BB%A3%E7%9B%AE%E8%82%89%E3%81%AE%E8%89%AF%E7%9F%A5/,【掲載先】焼津マップ,お食事,洋食,水曜,60人,無,,,,,,,有,,,,,,,,restaurant
222127,2024000033,静岡県,焼津市,焼津四川飯店＆ガーデンズ,ヤイヅシセンハンテンアンドガーデンズ,,,静岡県焼津市西小川3-6-1,,34.856985,138.309737,,,,11:30～14:30(L.O.14:00) 17:00～20:30（L.O.20:00） ※土日祝日17:30～21:00（L.O.20:00）,,,"陳建一氏から受け継ぐ伝統的な本格四川料理の店。緑あふれるガーデンレストランです。
緑あふれるガーデンレストランです。",,,普60台,,,054-253-1151,,,,https://www.sn-hotels.com/nag/,【掲載先】焼津マップ,お食事,その他料理,水曜（祝日の場合は営業）,120人,有,〇,〇,〇,〇,,,有,,,,,,,,restaurant
222127,2024000034,静岡県,焼津市,韓の食卓　イェッコル,カンノショクタクイェッコル,,,静岡県焼津市西小川2-1-6,,34.859123,138.311635,,,,水曜～日曜 ランチ11:00～14:00/ ディナー17:00～20:30 ※14:00～17:00は休憩　,,,本格的な韓国家庭料理をお気軽に楽しめます。お総菜コーナーでは自家製キムチやキンパ（韓流海苔巻）などをテイクアウト可能です。,,,普3台,,,054-637-9199,,,,https://www.instagram.com/yetgol.yaizu/,【掲載先】焼津マップ,お食事,その他料理,月曜・火曜,15人,無,,,,,,,無,,,,,,,,restaurant
222127,2024000035,静岡県,焼津市,Soupmen,スープメン,,,静岡県焼津市栄町1-5-14,,34.871275,138.318143,,,,11:00～14:00（LO.13:50）/18:00～26:00（LO.25:30）,,,某グルメサイト2020、21と2年連続百銘店入りした名店が焼津に移転しました。一番人気は牡蠣塩ラーメン。,,,なし,,,054-639-5990,,,,https://twitter.com/Soupmen2,【掲載先】焼津マップ,お食事,その他料理,なし,33人,無,,,,,,,無,,,,,,,,restaurant
222127,2024000036,静岡県,焼津市,らーめん岡田,ラーメンオカダ,,,静岡県焼津市小川3570-7,,34.851165,138.324404,,,,7:00～14:00 （LO.14:00）/17:00～20:00（LO19:45）,,,アットホームなお店。女性客1人でも来やすいお店。,,,お問い合わせください,,,080-9495-5385,,,,https://www.yaizu.gr.jp/spot/2864,【掲載先】焼津マップ,お食事,その他料理,水曜,23人,無,,,,,,,無,,,,,,,,restaurant
222127,2024000037,静岡県,焼津市,EIGHT　COFFEE　（エイトコーヒー）,エイトコーヒー,,,静岡県焼津市栄町1-2-10,,34.871325,138.318736,,,,,,,駅より徒歩１分、朝はモーニング、昼はランチと純喫茶メニューが色々あります。ドリンクのテイクアウトもできます。,,,＊パーキングチケットあります。,,,054-620-8668,,,,https://8coffee-yaizu.com/,【掲載先】焼津マップ,お食事,喫茶店・カフェ,水曜,30人,有,,〇,,,,ベビーカーと車イスが乗り越えられる段差と幅にしてあります,有,,,,,,,,restaurant
222127,2024000038,静岡県,焼津市,PIGE CAFE ＆ CookiePige焼津駅前店,ピゲカフェアンドクッキーピゲヤイヅエキマエテン,,,静岡県焼津市栄町4-1-6,,34.8702324,138.3196831,,,,10:00～18:00（ランチタイム11:00～14:00）,,,チーズピゲプロデュースのカフェ。チーズフードやスイーツ、クッキー専門店のクッキーも。,,,＊小石川パーキングをご利用の方にサービス券お渡ししています。,,,054-625-9931,,,,https://cheesepige.jp/,【掲載先】焼津マップ,お食事,喫茶店・カフェ,月曜,19人,無,,,,,,,有,,,,,,,,restaurant
222127,2024000039,静岡県,焼津市,蔵真Yaizu,クラマヤイヅ,,,静岡県焼津市栄町3-3-13,,34.8700047,138.3205946,,,,11:00～14:00/16:00～19:00,,,焼津駅より徒歩5分。まるで隠れ家のような古民家です。お客さまがリラックスできる時間を大切にしています。,,,なし,,,054-668-9093,,,,https://kurama-yaizu.jimdosite.com/,【掲載先】焼津マップ,お食事,喫茶店・カフェ,木曜,17人,無,,,,,,,有,,,,,,,,restaurant
222127,2024000040,静岡県,焼津市,Zentra Yoga Studio＆Karma Cafe （カルマカフェ）,ゼントラヨガスタジオアンドカルマカフェ,,,静岡県焼津市本町2-16-45,,34.86759,138.322771,,,,10:00～17:00,,,ベジタリアンのランチメニュー（焼き野菜カレー、ベジ麻婆豆腐、キッシュ）やスイーツ、自家焙煎珈琲とインド・タイの雑貨など。,,,普9台,,,054-631-5103,,,,https://www.zentrayoga.com/karma-cafe,【掲載先】焼津マップ,お食事,喫茶店・カフェ,火曜,16人,有,,〇,,,,,有,,,,,,,,restaurant
222127,2024000041,静岡県,焼津市,喫茶アルハ,キッサアルハ,,,静岡県焼津市本町3-9-26,,34.86565794,138.3223648,,,,10:00～LO.16:30,,,庭の見える店内でコーヒー、手作りケーキが味わえます。無添加手作りジャム（約20種）、国産はちみつを販売しております。,,,普6台,,,054-628-5545,,,,https://www.yaizu.gr.jp/spot/2860,【掲載先】焼津マップ,お食事,喫茶店・カフェ,水曜・木曜,15人,無,,,,,,,無,,,,,,,,restaurant
222127,2024000042,静岡県,焼津市,花沢の里 カントリーオーブン（蔵＆庭カフェ）,ハナザワノサトカントリーオーブン,,,静岡県焼津市花沢18,,34.907161,138.330533,,,,10:00～16:00（LO.15:30）,,,大自然と古い家並みを散策しながら、花沢の里に遊びに来て下さい。（焼菓子の販売あり）,,,"無し
花沢の里駐車場をご利用下さい。",,,080-5139-3670,,,,https://www.instagram.com/countryoven_niwacafe/,【掲載先】焼津マップ,お食事,喫茶店・カフェ,不定休あり,20人,無,,,,,,,有,,,,,,,,restaurant
222127,2024000043,静岡県,焼津市,toiro cafe（国登録有形文化財「原田家住宅」）,トイロカフェ,,,静岡県焼津市浜当目1-14-14（浜当目1丁目492）,,34.880452,138.329912,,,,11:00～14:30（LO.14:00）,,,"店頭に立つのは十人十色の個性豊かなスタッフ♪
ほんの少し優しい気持ちになれるかもしれないカフェです。",,,普15台,,,054-639-5300 ,,,,https://r.goope.jp/toirocafe,【掲載先】焼津マップ,お食事,喫茶店・カフェ,日曜・祝日・年末年始,24人,有,,〇,〇,〇,,,有,,,,,,,,restaurant
222127,2024000044,静岡県,焼津市,あたびーcafe,アタビーカフェ,,,静岡県焼津市浜当目4-13-18,,34.880687,138.334368,,,,11:00～17:00,,,潮風香る沖縄の雰囲気と食事、喫茶が出来る古民家cafe。,,,普20台,,,054-639-6768,,,,https://www.instagram.com/atabee0409,【掲載先】焼津マップ,お食事,喫茶店・カフェ,木曜・不定休あり,18人,無,,,,,,,無,,,,,,,,restaurant
222127,2024000045,静岡県,焼津市,やなぎやカフェ,ヤナギヤカフェ,,,静岡県焼津市東小川2-1-10,,34.85798425,138.3178055,,,,11:00～16:00（ランチタイムは14:00まで）,,,老舗かつお節屋が営む、削りたて鰹節の卵かけご飯セットや鰹のだし茶漬けが人気のカフェ。横には直売店も♪,,,普15台,,,054-629-3244,,,,https://yanagiyacafe.com/,【掲載先】焼津マップ,お食事,喫茶店・カフェ,日曜・月曜・年始,16人,有,〇,〇,,,,,有,,,,,,,,restaurant
222127,2024000046,静岡県,焼津市,ペンギン村,ペンギンムラ,,,静岡県焼津市田尻1366,,34.831962,138.334996,,,,10:00～21:00　金曜・土曜・日曜10:00～23:00,,,昔ながらの喫茶店！自家焙煎珈琲！日替りランチ、手作り軽食、ケーキセット、パフェ、テイクアウトも出来ます！,,,普12台,,,054-624-3799,,,,https://coffee-penginmura.com,【掲載先】焼津マップ,お食事,喫茶店・カフェ,水曜・第3火曜,25人,無,,,,,,,有,,,,,,,,restaurant
222127,2024000047,静岡県,焼津市,Caffe maar,カフェマール,,,静岡県焼津市一色115,,34.821976,138.311,,,,11:00～18:00(LO.17:30),,,自家焙煎珈琲をお庭を眺めながらのんびりお楽しみください！軽食有り,,,普９台,,,,,,,https://www.instagram.com/caffe.maar/,【掲載先】焼津マップ;【mail】caffemaar0@gmail.com,お食事,喫茶店・カフェ,月曜・第3火曜,12人,無,,,,,,,有,,,,,,,,restaurant
222127,2024000048,静岡県,焼津市,たこ焼き＆スマイル,タコヤキアンドスマイル,,,静岡県焼津市栄町1-5-17きめたビル１F,,34.871397,138.318444,,,,火曜～土曜10:00～24:00　日曜・祝日10:00～19:00,,,大阪の食材と焼津の食材をタイアップ。本場大阪のたこ焼きを召しあがって下さい。,,,なし,,,080-9472-6286,,,,https://www.instagram.com/tako__suma/,【掲載先】焼津マップ,お食事,その他料理,月曜,6人,無,,,,,,,無,,,,,,,,restaurant
222127,2024000049,静岡県,焼津市,炭火居酒屋　わが家,スミビイザカヤワガヤ,,,静岡県焼津市栄町1-8-20,,34.871337,138.316711,,,,17:00～26:00頃（LO.24:45）,,,アットホームな雰囲気。炭火焼きを中心とした料理が売りです。一人でも楽しく飲めます。,,,なし,,,054-628-8116,,,,https://yaizuwagaya.jimdofree.com/,【掲載先】焼津マップ,お食事,居酒屋,日曜・月曜,10人,無,,,,,,,有,,,,,,,,restaurant
222127,2024000050,静岡県,焼津市,１CHIGO（イチゴー）,イチゴー,,,静岡県焼津市栄町6-3-19,,34.869588,138.317458,,,,17:00～24:00（LO.23:00）,,,常時80～100種の日本酒と旬のお刺身、厳選した肉料理や創作料理を開放的な空間でごゆっくりと。,,,普8台,,,054-625-9015,,,,https://www.instagram.com/1chigo.yaizu/,【掲載先】焼津マップ,お食事,居酒屋,水曜,60人,無,,,,,,,有,,,,,マグロ;カツオ;シラス;サバ,,,restaurant
222127,2024000051,静岡県,焼津市,多国籍居酒屋　イヅミヤ,タコクセキイザカヤイヅミヤ,,,静岡県焼津市栄町1-2-12,,34.871488,138.318648,,,,17:30～24:00（LO.フード23:00　ドリンク23:30）,,,多国籍な料理と、クラフトビールなど多種のお酒をたのしめます！！,,,なし,,,054-626-2500,,,,https://r.gnavi.co.jp/hmeu0zgz0000/,【掲載先】焼津マップ,お食事,居酒屋,日曜,34人,無,,,,,,,有,,,,,,,,restaurant
222127,2024000052,静岡県,焼津市,居酒屋　憲坊,イザカヤケンボウ,,,焼津市栄町1-5-17,,34.871382,138.318529,,,,18:00～24:00（LO.23:00）,,,気軽に立ち寄れるアットホームな居酒屋です。地元の美味しいお魚が食べられます。,,,なし,,,054-626-3192 ,,,,,【掲載先】焼津マップ,お食事,居酒屋,なし,24人,無,,,,,,,無,,,,,マグロ;カツオ;桜エビ;シラス,,,restaurant
222127,2024000053,静岡県,焼津市,陽楽坊　晴れ晴れ,ヨウガクボウハレバレ,,,静岡県焼津市焼津2-4-4　イースリービル102,,34.86519967,138.3154476,,,,17:00～23:30（LO.22:30）,,,静岡の美味しい地酒と、毎朝、地元の港から仕入れた新鮮なお魚料理、おつまみを多数ご用意して、お待ちしております。,,,普6台,,,054-625-8085,,,,https://www.instagram.com/harebare817/,【掲載先】焼津マップ,お食事,居酒屋,日曜,22人,無,,,,,,,有,,,,,,,,restaurant
222127,2024000054,静岡県,焼津市,ラウンジ　マリガン,ラウンジマリガン,,,静岡県焼津市栄町1-8-14デイジービル101,,34.871194,138.316711,,,,19:30～24:00（LO.23:00）,,,焼津駅南口から徒歩3分。落ち着いた雰囲気のラウンジです。,,,普1台,,,054-628-8990,,,,https://www.youtube.com/channel/UChhGp_xxr2VxUeJ5y6WY4uQ,【掲載先】焼津マップ,お食事,ナイト,水曜,20人,無,,,,,,,有,,,,,,,,restaurant
222127,2024000055,静岡県,焼津市,生バンドハウス　みなと座,ナマバンドハウスミナトザ,,,静岡県焼津市栄町1-6-12,,34.870854,138.318035,,,,18:00～24:30,,,"超贅沢な一流バンドが連日生演奏!!驚きのお手軽料金と美味しいお料理で最高の想い出作りをお手伝いします!!
",,,なし,,,054-627-7205,,,,http://www.minatoza.jp/,【掲載先】焼津マップ,お食事,ナイト,日曜,70人,有,,〇,,,,段差無し,有,,,,,,,,restaurant
222127,2024000056,静岡県,焼津市,焼津PORTERS,ヤイヅポーターズ,,,静岡県焼津市中港3‐1-16,,34.8731446,138.324673,,,,10:00～18:00,,,旧漁港にある、漁具倉庫をリノベーションした焼津の新たな交流拠点！フードコート、お仕事や会議のできるコワーキングスペースなど、今後も様々な機能を拡張します！,,,普20台,,,054-631-6016,,,,https://yaizuporters.jp/,【掲載先】焼津マップ,スポーツその他,その他施設,火曜,46人(1Fフードコート),有,,,,〇,,,有,,,,,,,,commercial
222127,2024000057,静岡県,焼津市,こめふく,コメフク,,,"静岡県焼津市中港3-1-16　焼津PORTERS1F　フードコートA02	",,34.8731446,138.324673,,,,9:00～15:00,,,看板メニュー“削りたてかつお節かけ放題のおむすび”など、海のめぐみたっぷりなお米と焼津の食材を使用したメニューを展開。,,,焼津PORTERSに準じる,,,090-3349-5029,,,,https://www.instagram.com/komefuku_yaizu/,【掲載先】焼津マップ,お食事,和食,月曜・火曜(祝日の場合は営業),,有,〇,〇,〇,〇,,,有,,,,,,,,restaurant
222127,2024000058,静岡県,焼津市,焼津さかなセンター,ヤイヅサカナセンター,,,静岡県焼津市八楠4-13-7,,34.880115,138.303253,,,,9:00～17:00,,,東名焼津ＩＣ隣接。約50店舗の専門店。おいしい魚盛り沢山。水曜は臨時営業　場内半分の店舗で営業。,,,普600台/大型25台,,,054-628-1137,,,,https://www.sakana-center.com/,【掲載先】焼津マップ,お買い物,魚・水産加工品,元日・他施設点検臨時休業あり,,有,〇,〇,〇,〇,貸出用車イスあり,身障者用駐車場有。場内で入り口に段差無し身障者トイレ３ヶ所有。。,有,,,,,マグロ;カツオ;桜エビ;シラス;サバ,,,shop
222127,2024000059,静岡県,焼津市,さかなセンター大食堂「渚」,サカナセンターダイショクドウナギサ,,,静岡県焼津市八楠4-13-7,,34.879668,138.303691,,,,11:00～LO14:00/土・日・祝10:30～LO.15:00　,,,活きの良い焼津港直送の鮮魚をふんだんに使った海鮮料理の数々。本場焼津の新鮮美味をご賞味あれ！,,,普600台/大型25台,,,054-628-1137,,,,https://www.sakana-center.com/dining/,【掲載先】焼津マップ,お食事,和食,元日・他施設点検臨時休業あり,700人,有,,〇,,,,さかなセンターに、駐車場有り。段差無し。車いすのまま食事可。,有,,,,,マグロ;カツオ;桜エビ;シラス,,,restaurant
222127,2024000060,静岡県,焼津市,さんすい,サンスイ,,,静岡県焼津市八楠4丁目13-7　焼津さかなセンター,,34.88007339,138.3025941,,,,9:00～17:00,,,毎朝焼津港で仕入れる旬の新鮮な魚を、30種類以上の自慢の海鮮丼、お寿司、一品料理で是非お楽しみください。,,,さかなセンターに準ずる,,2号店（1号店054-629-3375）,054-625-8873,,,,https://www.sansui-yaizu.co.jp/,【掲載先】焼津マップ,お食事,すし,隔週水曜,45人,有,〇,〇,〇,〇,,さかなセンターに準じる,有,,,,,マグロ,,,restaurant
222127,2024000061,静岡県,焼津市,まぐろ食堂,マグロショクドウ,,,静岡県焼津市八楠4丁目13-7　焼津さかなセンターサービス棟B-1,,34.88090952,138.3035557,,,,月曜～金曜　9:00～14:30　　土日祝　9:00～16:30,,,まぐろ専門店直営の食事処。選りすぐりのまぐろや新鮮な魚介類がお値打ち価格にて食べることができます。,,,さかなセンターに準ずる,,,054-627-0228,,,,https://uoni.co.jp/maguro-ya/,【掲載先】焼津マップ,お食事,和食,元日。臨時休業あり,50人,有,〇,〇,,〇,店内段差無し,,有,,,,,マグロ,,,restaurant
222127,2024000062,静岡県,焼津市,まぐろの魚二,マグロノウオニ,,,静岡県焼津市八楠4丁目13-7　焼津さかなセンター店,,34.88043731,138.3036209,,,,9:00～17:00,,,まぐろ専門として天然鮪を主にまぐろの希少部位も取り揃え、煮魚も豊富に店頭に並んでいます。,,,さかなセンターに準ずる,,,054-627-0222,,,,https://uoni.co.jp/,【掲載先】焼津マップ,お買い物,魚・水産加工品,隔週水曜,,有,〇,〇,〇,〇,,,有,,,,,マグロ,,,shop
222127,2024000063,静岡県,焼津市,（株）川直　焼津さかなセンター店,カワナオヤイヅサカナセンターテン,,,焼津市八楠4-13-7,,34.879721,138.303291,,,,9:00～17:00,,,鰹なまり節を主に水産加工食品を製造直売しています。つくりたてなまり節を是非ご賞味ください。,,,さかなセンターに準ずる,,,054-627-7928,,,,https://kawanao.shopinfo.jp/,【掲載先】焼津マップ,お買い物,魚・水産加工品,隔週水曜,,有,〇,〇,〇,〇,,,有,,,,,カツオ,,,shop
222127,2024000064,静岡県,焼津市,（株）川直　工場直売店,カワナオコウジョウチョクバイテン,,,静岡県焼津市城之腰15,,34.860247,138.323534,,,,7:00～17:00,,,鰹なまり節を主に水産加工食品を製造直売しています。つくりたてなまり節を是非ご賞味ください。,,,普2台,,,054-628-2306,,,,https://kawanao.shopinfo.jp/,【掲載先】焼津マップ,お買い物,魚・水産加工品,不定休,,無,,,,,,,有,,,,,カツオ,,,shop
222127,2024000065,静岡県,焼津市,焼津プリン商店,ヤイヅプリンショウテン,,,静岡県焼津市八楠4-13-7,,34.880498,138.303379,,,,9:00～17:00,,,"日本初！焼きプリンを中心としたプリン専門店。
選び抜かれた素材で、なめらかな触感の究極の焼きプリンが誕生！",,,さかなセンターに準じる,,,080-6165-9279,,,,https://www.yaizu-purin.com/,【掲載先】焼津マップ,お買い物,お菓子,水曜（さかなセンターのカレンダー参照）,,有,,〇,〇,,,焼津さかなセンター内の店舗です。　,有,,,,,,,,shop
222127,2024000066,静岡県,焼津市,まぐろ茶屋,マグロチャヤ,,,静岡県焼津市鰯ケ島136-26　うみえ～る焼津２F,,34.856864,138.326515,,,,11:00～16:00（LO.15:00）/17:00～21:00（LO.フード19:30・ドリンク20:00）※新鮮な魚が無くなり次第終了　※詳しくはTEL及びHPカレンダー参照ください,,,焼津のまぐろ問屋直営「海鮮和食レストラン」。専属の「目利き」がほれ込んだ天然まぐろ＆駿河湾地魚を！,,,普162台/大型3台,,,054-270-5811,,,,http://magurocyaya.jp/,【掲載先】焼津マップ,お食事,和食,月曜(祝日の場合は翌日休),88人,有,〇,〇,〇,〇,,うみえ～ると同様に車いす用駐車場、多目的トイレ、エレベーター、車いすの貸出有り。刻み食なども事前予約にて可。,有,,,,,マグロ;桜エビ;シラス;サバ,,,restaurant
222127,2024000067,静岡県,焼津市,ととや新兵衛,トトヤシンベエ,,,静岡県焼津市鰯ケ島136-26　うみえ～る焼津２F,,34.85678,138.326718,,,,11:00～15:00(入店14:15まで　LO.14:30)/（土曜・日曜のみ）17:00～19:30　※夜は状況により早めに閉店,,,富士山一望の特等席で本格海鮮BBQを。景色の良さと鮮度の良い魚介類がごちそうです。https://www.totoya-bbq.com,,,普162台/大型3台,,,054-629-3551,,,,https://totoya-bbq.com/,【掲載先】焼津マップ,お食事,和食,水曜,85人,有,〇,〇,〇,〇,,うみえ～ると同様に車いす用駐車場、多目的トイレ、エレベーター、車いすの貸出有り。,有,,,,,マグロ;カツオ;ウナギ;サバ,,,restaurant
222127,2024000068,静岡県,焼津市,（株）ヤイヅツナコープ　焼津漁協直販店,ヤイヅギョキョウチョクハンテンヤイヅツナコープ,,,静岡県焼津市鰯ケ島136-26うみえ～る焼津１F,,34.856827,138.326573,,,,8:00～17:00,,,マグロ、カツオ、海産物お土産品。まぐろ丼及び冷凍品等販売。,,,普162台/大型3台,,,054-629-7393,,,,https://www.yaizu-gyokyo.or.jp/tunacoop/,【掲載先】焼津マップ;【その他連絡先】054-629-7388,お買い物,魚・水産加工品,月曜（祝日の場合は翌日休）・年始（1/1～3）,,有,〇,〇,〇,〇,, ※うみえ～るに準ずる,有,,,,,マグロ;カツオ,,,shop
222127,2024000069,静岡県,焼津市,やいづとくさんプラザ,ヤイヅトクサンプラザ,,,静岡県焼津市鰯ヶ島136-26　うみえ～る焼津１F,,34.856844,138.326553,,,,9:00～17:30,,,毎日が焼津物産展のお店。焼津の特産品をはじめ、魅力あふれる商品をたくさん取り揃えています。,,,普162台/大型3台,,,054-626-1561,,,,https://www.yaizu-uonaka.or.jp/plaza/,【掲載先】焼津マップ,お買い物,その他買い物,なし　※年始休業,,有,〇,〇,〇,〇,,,無,,,,,,,,shop
222127,2024000070,静岡県,焼津市,浜通り（八雲通り）,ハマドオリ（ヤクモドオリ）,,,静岡県焼津市北浜通、城之腰、鰯ケ島,,34.861959,138.323947,,,,,,,"焼津の遠洋漁業、水産加工業発祥の地。沿岸部独特の家屋や小路などが残っています。小泉八雲がこの地を愛し、「八雲通り」とも呼ばれます。
",,,,,（問合せ先：焼津市歴史民俗資料館）,054-629-6847,,,,https://www.yaizu.gr.jp/spot/1386,【掲載先】焼津マップ,体験・見どころ,見どころ,,,無,,,,,,,無,,,,,,,,rocket
222127,2024000071,静岡県,焼津市,静岡県水産・海洋技術研究所展示室「うみしる」　,シズオカケンスイサンカイヨウギジュツケンキュウジョテンジシツウミシル,,,静岡県焼津市鰯ケ島136-24,,34.859129,138.325268,,,,9:00～16:30,,入館無料,"静岡県の水産業や静岡の豊かな海についてプロジェクションマッピングや生物の展示などを通じて紹介。
",,,普通40台/大型要相談　,,,054-627-1816,,,,https://fish-exp.pref.shizuoka.jp/06information/6-2-4.html,【掲載先】焼津マップ,体験・見どころ,見どころ,年末年始　※大雨警報・波浪警報等が発令された場合は休館,,有,〇,〇,〇,〇,,フラットな床,有,,,,,,,,rocket
222127,2024000072,静岡県,焼津市,深層水ミュージアム・脱塩施設,シンソウスイミュージアム・ダツエンシセツ,,,静岡県焼津市鰯ケ島136-24,,34.85869,138.325905,,,,深層水ミュージアム9:00～17:00（最終入場時間16:45）　脱塩施設10:00～15:00,,入館無料（ミュージアム）,日本一深い駿河湾の深層水について学べ、オオグソクムシなど深海生物を展示。脱塩施設では駿河湾深層水から生成した2種類の水を販売。,,,普13台（敷地東側に共同駐車場あり）,,,054-620-5782,,,,https://www.city.yaizu.lg.jp/museum/shinsosui/index.html,【掲載先】焼津マップ,体験・見どころ,見どころ,月曜（祝日の場合は翌平日休）・年末年始,,有,〇,〇,〇,〇,,ゆずりあい駐車場有り。多目的用トイレ有り。建物出入り口、建物内に点字ブロック有り。,有,,,,,,,,rocket
222127,2024000073,静岡県,焼津市,花沢の里,ハナザワノサト,,,静岡県焼津市野秋373-1（花沢の里　観光駐車場）,,34.899917,138.332529,,,,,,,"昔懐かしい山村集落の歴史的な景観。静岡県初の国の重要伝統的建造物群保存地区です。歴史的な建造物を見学できる「ビジターセンター」もあります。
https://www.city.yaizu.lg.jp/museum/rekimin/index.html",,,花沢の里観光駐車場を利用(普通120台、大型2台）,,（問合せ先：焼津市歴史民俗資料館）,054-629-6847,,,,https://www.city.yaizu.lg.jp/museum/rekimin/bunkazai/hanazawanosato/hozon-chiku.html,【掲載先】焼津マップ,体験・見どころ,見どころ,,,無,,,,,,,有,,,,,,,,rocket
222127,2024000074,静岡県,焼津市,花沢地区ビジターセンター,ハナザワチクビジターセンター,,,静岡県焼津市花沢33,,34.904967,138.330182,,,,9:00～16:00(季節によって変更あり),,入館無料,集落の伝統的家屋を修理した建物です。内部を見学することができ、地区の歴史や文化を知ることができます。,,,花沢の里観光駐車場を利用(普通120台、大型2台）,,（問合せ先：焼津市歴史民俗資料館）,054-629-6847,,,,https://www.city.yaizu.lg.jp/museum/rekimin/bunkazai/hanazawanosato/visiter-center.html,【掲載先】焼津マップ,体験・見どころ,見どころ,月曜・火曜（祝日の場合は翌平日休)・雨天時　※状況により変更あり,,無,,,,,,,有,,,,,,,,rocket
222127,2024000075,静岡県,焼津市,焼津小泉八雲記念館,ヤイヅコイズミヤクモキネンカン,,,静岡県焼津市三ケ名1550,,34.864462,138.306554,,,,9:00～17:00,,入館無料,明治の文豪、小泉八雲が晩年、避暑地として愛した焼津での交流、創作活動を書簡、原稿、映像などで紹介。,,,普500台（文化ｾﾝﾀｰ内共有）,,,054-620-0022,,,,https://www.city.yaizu.lg.jp/museum/yakumo/index.html,【掲載先】焼津マップ,体験・見どころ,見どころ,月曜（祝日の場合は翌平日休）・年末年始・展示替期間,,有,〇,〇,,〇,,隣接する身障者用駐車場よりスロープを経て入館可。手すり有り。フラットな床。多目的トイレ,有,,,,,,,,rocket
222127,2024000076,静岡県,焼津市,焼津市歴史民俗資料館,ヤイヅシレキシミンゾクシリョウカン,,,静岡県焼津市三ケ名1550,,34.864639,138.306166,,,,9:00～17:00,,入館無料,常設展として郷土の歴史・風土を探る展示や第五福竜丸コーナーを設置。年数回の企画展を開催。,,,普500台（文化ｾﾝﾀｰ内共有）,,,054-629-6847,,,,https://www.city.yaizu.lg.jp/museum/rekimin/index.html,【掲載先】焼津マップ,体験・見どころ,見どころ,月曜（祝日の場合は翌平日休）・年末年始・展示替期間,,有,〇,〇,〇,〇,,隣接する身障者用駐車場よりスロープを経て入館可。手すり有り。フラットな床。多目的トイレ,有,,,,,,,,rocket
222127,2024000077,静岡県,焼津市,藤守の田遊び伝承館,フジモリノタアソビデンショウカン,,,静岡県焼津市藤守686-2,,34.811091,138.29961,,,,毎月第3日曜 9:00～15:00（ご来館の際はお問合せください）,,入館無料,"国重要無形民俗文化財「藤守の田遊び」を保存伝承するための施設です。写真や衣裳を展示しています。
",,,普20台,,（問合せ先：焼津市歴史民俗資料館）,054-629-6847,,,,https://www.city.yaizu.lg.jp/museum/rekimin/bunkazai/shitei/minzoku/c01.html,【掲載先】焼津マップ,体験・見どころ,見どころ,,,有,,〇,,,,手すり、スロープ有り,無,,,,,,,,rocket
222127,2024000078,静岡県,焼津市,なんばん記念館,ナンバンキネンカン,,,静岡県焼津市中港5-9-25,,34.874101,138.327262,,,,9:00～12:00/13:00～17:00　（土曜は営業日のみ）要予約。,,入館無料,「温故知新」、「原点回帰」。江戸時代から現代に至る漁業に関する数千種の品々を陳列。,,,普５台,,,054-627-1215,,,,https://fukuichi-world.jp/about/nanvan/,【掲載先】焼津マップ,体験・見どころ,見どころ,日曜・祝日,,無,,,,,,,有,,,,,,,,rocket
222127,2024000079,静岡県,焼津市,焼津漁業資料館,ヤイヅギョギョウシリョウカン,,,静岡県焼津市中港2-6-13,,34.87106,138.323956,,,,8:30～12:00/13:00～16:30,,大人300円（市内在住無料）・小人無料,焼津の漁業資料を展示。特に鰹船ブリッジや漁民の家は見所です。,,,普５台,,,054-620-0080,,,,https://www.yaizu-gyokyo.or.jp/gyokyo/museum/,【掲載先】焼津マップ,体験・見どころ,見どころ,水曜・日曜・祝日・夏季・年末年始　,,無,,,,,,,有,,,,,,,,rocket
222127,2024000080,静岡県,焼津市,焼津神社　,ヤイヅジンジャ,,,静岡県焼津市焼津2-7-2,,34.864938,138.314083,,,,参詣時間:何時でも可/社務所:9:00～16:45,,拝観無料,創建は1600年以上前と伝えられます。8月12・13日に行われる大祭は東海一の荒祭とも言われます。　※御朱印・御朱印帳あり,,,普40台,,,054-628-2444,,,,https://yaizujinja.or.jp/,【掲載先】焼津マップ,体験・見どころ,見どころ,年中無休,,有,〇,〇,,〇,,,有,,,,,,,,rocket
222127,2024000081,静岡県,焼津市,焼津千手大観音　大覺寺全珠院,ダイカクジゼンシュイン,,,静岡県焼津市大覚寺１-19-1,,34.8783189,138.2971858,,,,9:00～16:00,,拝観無料（団体様は有料で要予約）,木造漆箔造「日本一の焼津千手大観音」が本尊。健体康心を願います。寺マルシェや御縁日も行っております。　※御朱印・御朱印帳あり,,,普20台/大型6台　,,,054-628-1811,,,,http://www.daikakuji-zenshuin.jp/,【掲載先】焼津マップ,体験・見どころ,見どころ,不定休,,有,,,,〇,,,有,,,,,,,,rocket
222127,2024000082,静岡県,焼津市,那閉（なへ）神社　　,ナヘジンジャ,,,静岡県焼津市浜当目3-12-13,,34.880521,138.335989,,,,参詣時間:9:00～17:00,,拝観無料,1500年以上続く式内社。大漁満足・開運厄除等、多くのご利益がございます。釣り人のお守りが人気です。　※御朱印あり,,,普6台,,,054-628-6049,,,,https://nahe-shrine.jimdofree.com/,【掲載先】焼津マップ,体験・見どころ,見どころ,不定休,,無,,,,,,,有,,,,,,,,rocket
222127,2024000083,静岡県,焼津市,龍ちゃんのカッパ館,タッチャンノカッパカン,,,静岡県焼津市大住746-2,,34.846169,138.288491,,,,10:00～17:00,,大人300円・小人200円 ,カッパのコレクション数 世界一ギネス認定！手作り作品いっぱい！ひととき夢の世界をお楽しみください。,,,普４台（内大型１台）,,,054-629-8131,,,,https://tacchan.cc/,【掲載先】焼津マップ,体験・見どころ,見どころ,年中無休,,無,,,,,,,有,,,,,,,,rocket
222127,2024000084,静岡県,焼津市,徳川家勅願の寺　小川地蔵尊 海蔵寺　,トクガワケチョクガンノテラコガワジゾウソンカイゾウジ,,,静岡県焼津市東小川6-21-4,,34.852933,138.312122,,,,参拝時間9:00～17:00 　　　,,拝観無料,「こがわのお地蔵さん」と親しまれ、7月23日大縁日御開帳法要は、老若男女で賑わいをみせる。焼津七福神霊場、駿河一國百地蔵尊礼所。※御朱印あり,,,普32台/大型5台,,,054-620-3588,,,,https://www.kaizouji.com/,【掲載先】焼津マップ,体験・見どころ,見どころ,年中無休（法要等で不在の場合有）,,無,,,,,,,有,,,,,,,,rocket
222127,2024000085,静岡県,焼津市,長徳寺　格天井（ごうてんじょう）の絵,チョウトクジゴウテンジョウノエ,,,静岡県焼津市飯淵20,,34.789896,138.278203,,,,参拝時間9:00～17:00,,拝観無料,「飯淵のお不動さん」と親しまれる長徳寺の格天井の絵は野口幽谷の門人、益頭峻南他5名の筆によるもの。　※御朱印あり,,,普30台/大型5台,,,054-622-0745,,,,https://www.yaizu.gr.jp/spot/2135,【掲載先】焼津マップ,体験・見どころ,見どころ,年中無休,,有,,,〇,,,,無,,,,,,,,rocket
222127,2024000086,静岡県,焼津市,ターントクルこども館（焼津おもちゃ美術館・やいづ えほんと）,ターントクルコドモカン,,,静岡県焼津市栄町5-1-1,,34.868481,138.320857,,,,9:00～19:00　（焼津おもちゃ美術館は10:00～16:00）,,入館無料（ただし、おもちゃ美術館のみ有料）,0歳から100歳まで楽しめるおもちゃと絵本の一体型美術館で、触れて・遊んで・学んでみませんか？,,,普30台,,,054-631-6165,,,,https://yaizu-kodomokan.com/,【掲載先】焼津マップ,体験・見どころ,見学・体験,水曜（祝日の場合は翌平日休）・年末年始,,有,〇,〇,〇,〇,エレベーターあり,,有,,,,,,,,rocket
222127,2024000087,静岡県,焼津市,ディスカバリーパーク焼津天文科学館,ディスカバリーパークヤイヅテンモンカガクカン,,,静岡県焼津市田尻2968-1,,34.821132,138.330008,,,,平日9:00～17:00、土曜・日曜・祝日10:00～19:00（繁忙期等で変更の場合あり）,,プラネタリウム、展示・体験室は有料,静岡県最大の天体望遠鏡、大迫力宇宙映像のプラネタリウム、体験型科学展示等。屋上からは富士山絶景。,,,普280台/大型3台,,,054-625-0800,,,,https://www.discoverypark.jp/,【掲載先】焼津マップ,体験・見どころ,見学・体験,月曜（祝日の場合は翌平日休）、年末年始、他臨時休館あり,,有,〇,〇,,〇,,当館はハートビル法に適合した建築物です。ゆずりあい駐車場あり。多目的トイレ有り。エレベーター有り。,有,,,,,,,,rocket
222127,2024000088,静岡県,焼津市,ひれみみっ娘ファクトリー,ヒレミミッコノセイチウオガシモンスター,,,静岡県焼津市大栄町2- 6-7,,34.874654,138.311495,,,,11:00～17:00,,ベビーカステラ300円、ロングポテト600円、ひれみみアイス250円,住宅街に突如現れる赤いひれみみバス！屋台グルメを食べることができ、自販機ガチャやひれみみ神社等、独自のエンターテイメントが楽しめます。,,,普3台,,,054-660-3939,,,,https://www.hiremimikko.com/,【掲載先】焼津マップ,体験・見どころ,見学・体験,土曜・日曜・祝日（営業する可能性あり）,,無,,,,,,,有,,,,,,,,rocket
222127,2024000089,静岡県,焼津市,趣味の店　木目込み人形　美也比　,シュミノミセキメコミニンギョウミヤビ,,,静岡県焼津市本町5-13-4,,34.861656,138.322016,,,,10:00～17:00,,"人形作り（焼津だるま、開運ひょうたん等3,000円～、焼津だるまストラップ1,800円）",「焼津だるま」等の人形販売からオリジナルの祝い人形も取り扱っております。,,,普6台,,,054-628-9015,,,,https://kimekomi-miyabi.com/,【掲載先】焼津マップ,体験・見どころ,見学・体験,不定休,,無,,,,,,,有,,,,,,,,rocket
222127,2024000090,静岡県,焼津市,みかん狩り　橘農園（花沢の里付近）,ミカンガリタチバナノウエン,,,静岡県焼津市吉津　地先,,34.900604,138.331152,,,,9:00～日没まで（10月中旬～12月下旬）,,"大人1,100円　小学生以下700円（団体割引有り）",「花沢の里」入り口付近で、みかん狩りが楽しめます。,,,花沢の里観光駐車場を利用(普通120台、大型2台）,,,054-628-2453,,,,,【掲載先】焼津マップ;【その他連絡先】090-6585-0906,体験・見どころ,見学・体験,定休日特になし,,無,,,,,,,無,,,,,,,,rocket
222127,2024000091,静岡県,焼津市,焼津吹きガラス工房 月想う,ヤイヅフキガラスコウボウツキオモウ,,,静岡県焼津市浜当目2-3-15,,34.878129,138.328383,,,,10:00～16:00（日によって変動あり）,,"4,000円",1100℃以上で溶けているガラスが、あなたの手で生まれ変わります。世界にたった一つの作品を吹きガラス体験で作ってみませんか。（1枠　3人まで）,,,普5台,,,,,,,https://tsukiomou.com/,【掲載先】焼津マップ;【mail】izumi@tsukiomou.com,体験・見どころ,見学・体験,不定休,,有,〇,〇,,,,ハンディキャップをお持ちの方もできる範囲で体験していただけます。お気軽にご相談くださいませ,有,,,,,,,,rocket
222127,2024000092,静岡県,焼津市,松葉畳店,陽楽坊　晴れ晴れ+F174:AP174,,,静岡県焼津市中新田1005-5,,34.839564,138.286052,,,,9:30～17:00,,,畳の香り、肌触りの心地よさを楽しんでもらえる雑貨がたくさん並んだSHOPです！畳の工場見学もできますので、お気軽にお立ち寄りくださいね♪,,,普8台・大型2台　,,,054-624-9669,,,,https://www.matsubatatamiten.jp/,【掲載先】焼津マップ,体験・見どころ,見学・体験,日曜・月曜・祝日,,無,,,,,,,有,,,,,,,,rocket
222127,2024000093,静岡県,焼津市,食品サンプル体験 葵サンプル,ショクヒンサンプルタイケンアオイサンプル,,,静岡県焼津市祢宜島362-3,,34.839332,138.305367,,,,9:00～12:00（LO11:00）13:00～17:00（LO15:00）,,"2,000円～(要予約）",大人から子供まで楽しめる食品サンプル体験!!テレビで見た「あの」体験もできる！！,,,普10台/大型2台,,,054-624-8645,,,,http://www.aoisample.com/,【掲載先】焼津マップ,体験・見どころ,見学・体験,不定休,,有,〇,〇,,,,工場内は段差無し。トイレは車いすに対応していません。,有,,,,,,,,rocket
222127,2024000094,静岡県,焼津市,ブルーベリーガーデンやいづ,ブルーベリーガーデンヤイヅ,,,静岡県焼津市一色3０,,34.824135,138.308618,,,,土・日・祝 9:30 ～ 17:30  水・木 10:30～16:30 （6月上旬 ～ 8月下旬 ※状況にて変更有）,,"中学生以上 2,000円　小学生 1,500円　4歳以上 500円　4歳未満無料",50種類850本のブルーベリー農園で収穫体験＆食べ放題。体験後は併設のカフェで一服♪カフェのみ来店・直売購入も可。,,,普20台,,,080-8040-9465,,,,https://www.bbyaizu.com/,【掲載先】焼津マップ,体験・見どころ,見学・体験,月曜・火曜・金曜,,有,,〇,,,,,有,,,,,,,,rocket
222127,2024000095,静岡県,焼津市,Violalily（ヴィオラリリー）,ヴィオラリリー,,,静岡県焼津市一色808-1,,34.827505,138.310336,,,,10:30～16:30,,"イニシャルチャーム2,200円～",お花と色を使ったハンドメイド。ハーバリウム、アルコールインクアート、レジンアクセサリーなど。完全予約制サロンです。,,,普４台,,,080-2247-5907,,,,https://r.goope.jp/violalily73,【掲載先】焼津マップ,体験・見どころ,見学・体験,不定休,,無,,,,,,,有,,,,,,,,rocket
222127,2024000096,静岡県,焼津市,ギャラリーくすくす,ギャラリークスクス,,,静岡県焼津市上泉1068,,34.8167323,138.2587274,,,,10:00～18:00,,入場無料,笑顔と元気を届ける「言葉遊び木彫」。「笑刻家（しょうこくか）」岩﨑祐司さんのアート作品約300点を展示。,,,普２台/マイクロ1台,,,054-631-9696,,,,http://www.iwasaki-parody.jp/,【掲載先】焼津マップ,体験・見どころ,見どころ,日曜(日曜も相談は可),,無,,,,,,,有,,,,,,,,rocket
222127,2024000097,静岡県,焼津市,観光ボランティアガイド　やいづ観光案内人の会,カンコウボランティアガイドヤイヅカンコウアンナイニンノカイ,,,静岡県焼津市栄町1-2-14,,34.871523,138.318804,,,,8:30～17:15,,詳細はお問い合わせください。,"花沢の里や小泉八雲ゆかりの地、焼津水産業発祥の地・浜通りなど、思い出に残る焼津の旅のお供を致します。
",,,なし,,（事務局　（一社）焼津市観光協会内）　,054-626-6266,,,,https://www.facebook.com/yaizukankouannainin/,【掲載先】焼津マップ,体験・見どころ,見学・体験,年末年始,,無,,,,,,,有,,,,,,,,rocket
222127,2024000098,静岡県,焼津市,サンライフ焼津,サインライフヤイヅ,,,静岡県焼津市中港3-3-12,,34.87382,138.325179,,,,9:00～21:00（最終受付20:30）,,大人560円/小人340円（乳児利用不可）,広々した内風呂と露天風呂に焼津温泉が供給されています。芯まで温まれば身も心も癒されます。,,,普　87台・うち障害者用3台,,,054-627-3377,,,,https://sunlifeyaizu.jp/,【掲載先】焼津マップ,日帰り温泉,焼津温泉,月曜（祝日の場合は翌日休）・年末年始,,有,〇,,,〇,,障害者用駐車場から館内まで段差がなく入館できます。多目的トイレ有り,有,1,,,,,,,要相談：アイコン作成
222127,2024000099,静岡県,焼津市,元湯なかむら館,モトユナカムラカン,,,静岡県焼津市駅北1-14-7,,34.874565,138.321685,,,,カフェ10:00～20:00（LO.19:30）　温泉入浴10:00～20:00（最終受付19:30）,,温泉入浴 　大人490円　中人（小学生）200円　小人（6歳未満）100円,焼津温泉発祥の銭湯を全面リニューアル！焼津市内唯一の源泉掛け流し温泉を490円で楽しめます。お洒落な「銭湯併設カフェ」は新感覚！「レンタルルーム」「整体」も含め「癒し」「美味しさ」「楽しさ」を提供します。,,,普35台,,,054-628-4397,,,,https://nakamurakan.co.jp/,【掲載先】焼津マップ,日帰り温泉,焼津温泉,水曜,,有,,〇,,,,,有,1,,,,,,,要相談：アイコン作成
222127,2024000100,静岡県,焼津市,エキチカ温泉・くろしお,エキチカオンセンクロシオ,,,静岡県焼津市栄町1-13-1,,34.870382,138.317362,,,,10:00～翌9:00,,"フリータイム1,600円、時間制コース60分750円より",サウナーに人気のラジウムサウナ。湯あがり気軽に楽しめるセルフスタイルのレストランとライブラリースペ一ス。,,,普120台,,,054-627-7200,,,,http://spa-kuroshio.com/,【掲載先】焼津マップ,日帰り温泉,焼津温泉,不定休（年3回設備点検の為、休館）,,無,,,,,,,有,1,,,,,,,要相談：アイコン作成
222127,2024000101,静岡県,焼津市,亀の井ホテル焼津,カメノイホテルヤイヅ,,,静岡県焼津市浜当目1375-2,,34.883084,138.333097,,,,10:30～15:00（最終受付14:00）水曜13:00～,,（平日）大人700円/小人350円　（土日祝・ホテル指定日）大人900円/小人450円,駿河湾、焼津市街を眺めながら展望大浴場の風呂に浸かる贅沢を満喫ください。,,,普約60台,,,054-627-0661,,,,https://kamenoi-hotels.com/yaizu/,【掲載先】焼津マップ,日帰り温泉,焼津温泉,,,有,〇,〇,〇,,,館内、浴槽に手すり有り。バリアフリー客室あり。客室内に天井走行リフト無し,有,1,,,,,,,要相談：アイコン作成
222127,2024000102,静岡県,焼津市,ホテルアンビア松風閣,ホテルアンビアショウフウカク,,,静岡県焼津市浜当目海岸通り星が丘,,34.884753,138.337298,,,,11:30～14:00（食事）13:00～15:00（温泉/金～日・祝日は12:00～）,,"全日/お得な入浴セットプラン　大人3,900円～（食事＋入浴）※除外日設定あり　会食利用の方の入浴料1,100円（バスタオル・フェイスタオル付）入浴のみ2,200円",海抜90ｍの露天風呂から、澄み渡る富士と駿河湾で日頃の疲れをリフレッシュ！,,,普150台/大型20台,,,054-628-3131,,,,https://www.syofukaku.com/,【掲載先】焼津マップ,日帰り温泉,焼津温泉,年中無休,,有,〇,〇,〇,,,対応している客室有。エレベター、スロープ、トイレ有り,有,1,,,,,,,要相談：アイコン作成
222127,2024000103,静岡県,焼津市,焼津グランドホテル,ヤイヅグランドホテル,,,静岡県焼津市浜当目1489,,34.883258,138.337117,,,,11:30～14:00（食事）13:00～15:00（温泉）（状況により変動有り）　　,,"食事/大人3,000円（税込）　入浴料/1,000円","露天風呂から富士山・駿河湾を一望できます。
※入浴のみのご利用は出来かねます。
",,,普100台/大型要相談,,,054-627-1121,,,,https://www.sn-hotels.com/ygh/,【掲載先】焼津マップ,日帰り温泉,焼津温泉,年中無休,,有,〇,〇,,〇,,スロープ、多目的トイレ３ヶ所、大浴場にシャワーチェア有り。,有,1,,,,,,,要相談：アイコン作成
222127,2024000104,静岡県,焼津市,焼津　笑福の湯,ヤイヅショウフクノユ,,,静岡県焼津市柳新屋241-1,,34.855104,138.285167,,,,6:00～24:00／最終受付23:10 ,,平日/大人1000円・小人300円　土曜・日曜・祝日/大人1100円・小人350円　他コースあり　,人工温泉や炭酸泉などの露天風呂。サウナや7種類の湯船を備えた内風呂。岩盤浴やお食事処も充実。,,,普185台,,,054-620-4126,,,,https://www.shoufukunoyu.jp/,【掲載先】焼津マップ,日帰り温泉,その他温泉,年中無休（設備点検のため休館日有り）,,有,〇,〇,,〇,エレベーターあり,スロープ、手すり、エレベーターあり,有,,,,,,,,要相談：アイコン作成
222127,2024000105,静岡県,焼津市,JR焼津駅前足湯,ジェイアールヤイヅエキマエアシユ,,,静岡県焼津市栄町1-1-4,,34.871741,138.318203,,,,利用時間9:30～16:00（※7～9月は 9:30～17:00）,,,"どなたでも気軽に入れます。ご利用の際はタオルを持参ください。
※利用時間、休止日等は予告なく変更する場合があります。
",,,なし,,（問合せ先：焼津市商工観光課）,054-626-2155,,,,https://www.yaizu.gr.jp/spot/1720,【掲載先】焼津マップ;【その他連絡先】054-626-6266（問合せ先：（一社）焼津市観光協会）,日帰り温泉,焼津温泉,雨天及び施設点検日等・年末年始（12/29～1/3）,,無,,,,,,,有,1,,,,,,,要相談：アイコン作成
222127,2024000106,静岡県,焼津市,「ととゆ」焼津市役所本庁舎前足湯,トトユヤイヅシヤクショホンチョウシャマエアシユ,,,静岡県焼津市本町2-16-32　,,34.86774148,138.3234005,,,,利用時間9:00～16:00（※7～9月は9：00～17:00）,,,"どなたでも気軽に入れます。ご利用の際はタオルを持参ください。
※利用時間、休止日等は予告なく変更する場合があります。
",,,あり,,（問合せ先：焼津市商工観光課）,054-626-2155,,,,https://www.yaizu.gr.jp/spot/1723,【掲載先】焼津マップ;【その他連絡先】054-626-6266（問合せ先：（一社）焼津市観光協会）,日帰り温泉,焼津温泉,雨天及び施設点検日等・年末年始（12/29～1/3）,,無,,,,,,,有,1,,,,,,,要相談：アイコン作成
222127,2024000107,静岡県,焼津市,（有）丸生食品,マルセイショクヒン,,,静岡県焼津市中港3-5-1,,34.873334,138.326103,,,,13:00～15:30　（年末は要予約）,,,魚と卵がたっぷり入った栄養満点の伊達巻を、普段と違った贈り物やご自宅用にいかがでしょうか。,,,普3台,,,054-629-2068,,,,https://datemaki-marusei.com/,【掲載先】焼津マップ,お買い物,魚・水産加工品,年中無休,,無,,,,,,,有,,,,,,,,shop
222127,2024000108,静岡県,焼津市,中源商店,ナカゲンショウテン,,,静岡県焼津市大栄町1-5-18,,34.872426,138.31274,,,,8:00～16:30,,,創業昭和31年。焼津名産つくだ煮を製造・販売しております。お気軽に足を運んで下さいませ。,,,普6台,,,054-628-4520,,,,https://nakagen-tsukudani.jp/,【掲載先】焼津マップ,お買い物,魚・水産加工品,日曜・祝日,,無,,,,,,,有,,,,,マグロ;カツオ;サバ,,,shop
222127,2024000109,静岡県,焼津市,カネイチ水産,カネイチスイサン,,,静岡県焼津市本町1-6-23,,34.869697,138.323213,,,,9:00～17:00,,,魚仲買人の店。鮮魚・冷凍水産品専門店。旧焼津港近く。,,,普8台/大型要相談,,,054-627-7596,,,,https://www.yaizu.gr.jp/spot/2843,【掲載先】焼津マップ,お買い物,魚・水産加工品,日曜・8/14～16・年始,,有,,〇,,,,スロープ有り、店内段差無いが、水で滑る可能性有り。,無,,,,,マグロ;カツオ;桜エビ;シラス,,,shop
222127,2024000110,静岡県,焼津市,（株）ＳＴＩサンヨー　（旧三洋食品）,エスティーアイサンヨー,,,静岡県焼津市焼津5-7-3,,34.861651,138.317749,,,,8:00～17:00,,,創業70年、日本で最も歴史あるプリンス印ツナ缶詰を焼津の自社工場直売所で販売中。お土産にも。,,,普５台,,,054-628-7211,,,,https://www.stisanyo.com/,【掲載先】焼津マップ,お買い物,魚・水産加工品,土曜・日曜・祝日（土曜は不定期営業）,,無,,,,,,,有,,,,,マグロ,,,shop
222127,2024000111,静岡県,焼津市,（株）久星商店,キュウボシショウテン,,,静岡県焼津市焼津6-5-7,,34.864166,138.318596,,,,8:00～17:00,,,鰹生利節専門店。添加物を使用していないので安心安全な商品です。鰹塩辛、ハラモ、ヘソ味噌煮等販売。https://kyuboshi.com/,,,普2台,,,054-628-3279,,,,https://kyuboshi.com/,【掲載先】焼津マップ,お買い物,魚・水産加工品,火曜・土曜・休前日,,無,,,,,,※車椅子入店はOKだが工場前は砂利                 ,有,,,,,カツオ,,,shop
222127,2024000112,静岡県,焼津市,（有）マルイ水産,マルイスイサン,,,静岡県焼津市北浜通78-1,,34.865083,138.324517,,,,8:30～17:30,,,焼津小川港で水揚げされた寒鯖を使ったオレンジ風味しめさば【無添加】直売所になります。地産水産品他あり。,,,普3台,,,054-621-1112,,,,https://maruiyaizu.com/,【掲載先】焼津マップ,お買い物,魚・水産加工品,火曜・土曜,,有,,〇,,,,出入り口、床がフラットで車イスでも移動できる。ドアが簡単にあけられる。,有,,,,,マグロ;サバ,,,shop
222127,2024000113,静岡県,焼津市,金虎　昭和通り店,カネトラショウワドオリテン,,,静岡県焼津市本町4-12-10,,34.863879,138.321996,,,,9:30～18:00,,,"創業110年の老舗鰹節屋。鰹節の他に無添加だしパックなどを販売。高品質ドッグフードおさかな・鰹犬販売中！
",,,普4台,,,054-628-3252,,,,https://kanetora.jp/,【掲載先】焼津マップ,お買い物,魚・水産加工品,日曜・祝日,,無,,,,,,,有,,,,,カツオ,,,shop
222127,2024000114,静岡県,焼津市,岩清（IWASEI）,イワセイ,,,静岡県焼津市本町5-14-9,,34.861742,138.322629,,,,9:00～17:00,,,創業天保三年。鯖のことなら焼津の岩清。鯖寿司（要予約）・しめ鯖・鯖麹漬など取り揃えております。,,,普3台,,,054-629-2025,,,,https://www.iwasei.com/,【掲載先】焼津マップ,お買い物,魚・水産加工品,日曜・祝日・年末年始・その他臨時休業あり,,無,,,,,,,有,,,,,マグロ;カツオ;サバ,,,shop
222127,2024000115,静岡県,焼津市,丸又直売店,マルマタチョクバイテン,,,静岡県焼津市東小川1-4-3,,34.860053,138.316147,,,,10:00～16:00,,,焼津名産の黒はんぺんをはじめ、ちくわ、揚物等、素材と水にこだわり、無添加でおいしい練り物をお届けします。,,,普5台,,,054-627-1161,,,,https://www.marumata.jp/,【掲載先】焼津マップ,お買い物,魚・水産加工品,水曜・日曜,,有,,〇,,,,車いすでの来店可能。,有,,,,,,,,shop
222127,2024000116,静岡県,焼津市,足平,アシヘイ,,,静岡県焼津市本町6-7-9,,34.860965,138.321003,,,,9:00～17:00,,,全国名品取り寄せに選ばれる江戸時代創業の練り製品老舗。手間をかけた味と品質で全国にファンが多い。https://www.ashihei.net/,,,普2台,,,054-628-3008,,,,https://www.ashihei.net/,【掲載先】焼津マップ,お買い物,魚・水産加工品,月曜・お盆・年始,,無,,,,,,入り口と店内がすぐ近くなので入れます。,有,,,,,,,,shop
222127,2024000117,静岡県,焼津市,海味工房　ぬかや　斎藤商店,ウミアジコウボウヌカヤサイトウショウテン,,,静岡県焼津市城之腰109-1,,34.861496,138.32385,,,,10:30～17:00,,,無添加安心、味自慢の真鯛のかま味噌漬け・なまり節・鰹塩辛・佃煮等製造販売。魚河岸シャツも好評！,,,普2台,,,054-628-4239,,,,https://www.nukaya.jp/,【掲載先】焼津マップ,お買い物,魚・水産加工品,不定休,,有,,〇,,,,１F店舗は車いす入店可。,有,,,,,マグロ;カツオ,,,shop
222127,2024000118,静岡県,焼津市,だしの専門店　マルハチ村松　浜通り店,ダシノセンモンテンマルハチムラマツハマドオリテン,,,静岡県焼津市城之腰108-1-1,,34.861427,138.323764,,,,9:00～17:00,,,だし専門メーカーの直営店。焼津で昔から親しまれているだしの素「パウミー」等、こだわりの逸品多数。,,,普30台,,,054-628-7371,,,,http://www.08m.jp/,【掲載先】焼津マップ,お買い物,魚・水産加工品,日曜・会社指定休日あり,,無,,,,,,,有,,,,,カツオ,,,shop
222127,2024000119,静岡県,焼津市,福一焼津流通センター,フクイチヤイヅリュウツウセンター,,,静岡県焼津市八楠170,,34.882281,138.299643,,,,5:30～17:00,,,東名焼津ICすぐ。マグロのオブジェが目印。船元直営「南まぐろの旨い店」！目利き厳選、鮮度抜群の魚。,,,普42台/大型応相談,,,054-628-2913,,,,https://fukuichi-world.jp/ryutu/,【掲載先】焼津マップ,お買い物,魚・水産加工品,年中無休,,有,〇,〇,〇,〇,,,有,,,,,マグロ;カツオ;桜エビ;シラス;サバ,,,shop
222127,2024000120,静岡県,焼津市,漬魚専門店 魚魚toto,ツケギョセンモンテントト,,,静岡県焼津市八楠4-15-28,,34.879903,138.304026,,,,10:00～15:00,,,さわら西京漬、銀ダラ粕漬等御贈答用漬魚詰合せや、御家庭のおかず用規格外お買得商品を多数取り揃えております。さかなセンター入口横。,,,普2台,,,054-628-0781,,,,https://imaru-toto.com/,【掲載先】焼津マップ,お買い物,魚・水産加工品,水曜・日曜・祝日　　その他臨時休業あり,,無,,,,,,,有,,,,,マグロ;サバ,,,shop
222127,2024000121,静岡県,焼津市,手火山造りかつおなまりぶし専門店　進藤登代治商店,テビヤマヅクリカツオナマリブシセンモンテンシンドウトヨジショウテン,,,静岡県焼津市大村2-29-21,,34.869952,138.3065,,,,9:00～17:00,,,こだわりの【手火山造りかつおなまりぶし】はもちろん、『ワンにゃんかつお』としてワンにゃんのおやつとしても大人気です。150円～。,,,普2台,,,054-628-3031,,,,https://saradakatuo.shop-pro.jp/,【掲載先】焼津マップ,お買い物,魚・水産加工品,日曜,,無,,,,,,,有,,,,,カツオ,,,shop
222127,2024000122,静岡県,焼津市,石原水産（株）マリンステーション,イシハラスイサンマリンステーション,,,静岡県焼津市八楠2-5-2,,34.878473,138.311495,,,,9:00～16:00,,,かつお・まぐろ・サーモン専門店。自社工場製品を販売しています。SDG’s取組店。土曜日と毎月14日は「いしはらの日」セール！,,,普6台（セール日 臨時駐車場あり）,,,054-629-7420,,,,http://www.ishiharasuisan.co.jp/,【掲載先】焼津マップ,お買い物,魚・水産加工品,日曜・月曜（祝日及び14日が日・月の場合は翌平日休）,,有,,〇,,〇,,段差無し,有,,,,,マグロ;カツオ;ウナギ,,,shop
222127,2024000123,静岡県,焼津市,いちまるマルシェ,イチマルマルシェ,,,静岡県焼津市浜当目1-3-23,,34.878481,138.326425,,,,9:00～16:00,,,外食産業向け業務用冷凍食品工場の直売所。プロユースのローストビーフやビーフシチュー等、多品目を販売中。,,,普50台,,,054-628-4115,,,,https://www.bras-de-chef.jp/marche/,【掲載先】焼津マップ,お買い物,魚・水産加工品,土曜・日曜・祝日、GW、夏季・冬季休暇　,,無,,,,,,,有,,,,,マグロ,,,shop
222127,2024000124,静岡県,焼津市,（株）サスエ前田魚店　西小川店,サスエマエダウオテンニシコガワテン,,,静岡県焼津市西小川4-15-7,,34.853693,138.305765,,,,平日12:00～17:30　土曜11：00～17:30,,,港町焼津ならではの老舗魚屋。国内外のレストランから一般小売りまで、新鮮な魚を豊富に揃えています。,,,普30台,,,054-626-0003,,,,https://sasue-maeda.com/,【掲載先】焼津マップ,お買い物,魚・水産加工品,日曜・月曜,,無,,,,,,,有,,,,,マグロ;カツオ;桜エビ;シラス;サバ,,,shop
222127,2024000125,静岡県,焼津市,手火山造り鰹節のやまじゅう,テビヤマヅクリカツオブシノヤマジュウ,,,静岡県焼津市小川新町5-4-9,,34.852331,138.318599,,,,月曜～金曜9:30～17:00　土曜9:00～11:30,,,伝統の手火山造りで鰹節製造。第20回全国鰹節類品評会にて農林水産大臣賞受賞。店舗定休日も自販機で鰹節販売中。　【体験】工場見学（要予約　少人数可）,,,普15台(中型バス可),,,054-628-3677,,,,https://www.yama10.jp/,【掲載先】焼津マップ,お買い物,魚・水産加工品,日曜・祝日,,無,,,,,,,有,,,,,カツオ,,,shop
222127,2024000126,静岡県,焼津市,カネヨ工場直売所,カネヨコウジョウチョクバイジョ,,,静岡県焼津市小川新町3-9-3,,34.854952,138.322715,,,,8:00～16:00,,,"農林水産大臣賞受賞の鰹なまり節、甘口の鰹鮪の佃煮、猫様用、わんこ様用を工場直販。地方発送も承ります。
",,,普5台,,,054-628-3327,,,,https://yaizukaneyo.com/,【掲載先】焼津マップ,お買い物,魚・水産加工品,土曜・日曜・祝日,,有,,〇,,,,,有,,,,,マグロ;カツオ;サバ,,,shop
222127,2024000127,静岡県,焼津市,ヤキレイ　焼津冷蔵（株）,ヤキレイヤイヅレイゾウ,,,静岡県焼津市小川新町5-8-2,,34.852429,138.320546,,,,8:30～16:00,,,厳選した国産原料で〆さば、塩さば・穴子・鰻蒲焼きの加工販売を行っています。極みの鯖寿司も好評販売中です!!,,,普10台,,,054-627-0181,,,,http://www.yakirei.co.jp/,【掲載先】焼津マップ,お買い物,魚・水産加工品,土曜・日曜・祝日　※土曜はお問合せください,,無,,,,,,,有,,,,,ウナギ;サバ,,,shop
222127,2024000128,静岡県,焼津市,こだわりの鰹節　マルツマエダ商店,コダワリノカツオブシマルツマエダショウテン,,,静岡県焼津市小川新町5-4-17,,34.852275,138.319224,,,,9:00～17:00,,,削りたての花かつおや粉かつお、厚削りを工場直売価格にてご用意しております。お気軽にどうぞ。,,,普2台,,,054-628-2059,,,,https://marutsu-maeda.com/,【掲載先】焼津マップ,お買い物,魚・水産加工品,土曜午後・日曜・祝日,,無,,,,,,,有,,,,,カツオ,,,shop
222127,2024000129,静岡県,焼津市,だしの堅魚屋（かたうおや）　（株）新丸正,ダシノカタウオヤシンマルショウ,,,静岡県焼津市三和1384-1,,34.831133,138.302983,,,,9:00～17:30,,,だしにまじめに一貫生産。農林水産大臣賞受賞の削り節「駿河ふぶき」、焼津かつおせんべい、だしパック、ふりかけ等。,,,普5台,,,054-624-5158,,,,https://www.katauoya.com/,【掲載先】焼津マップ,お買い物,魚・水産加工品,日曜・祝日・年末年始,,有,,〇,,,,店舗入り口にスロープ有り。,有,,,,,カツオ,,,shop
222127,2024000130,静岡県,焼津市,あまる齋藤商店,アマルサイトウショウテン,,,静岡県焼津市利右衛門384-1,,34.791177,138.289334,,,,8:00～17:00,,,焼津・一眞（いっしん）　鯖の専門店です。創業70年、昔ながらの伝統製法で美味しい鯖をお届けします。,,,普5台/大型１台,,,054-631-4585,,,,https://amalu.co.jp/,【掲載先】焼津マップ,お買い物,魚・水産加工品,水曜・日曜・土曜午後,,有,,〇,,,,玄関フラット。ドアが大きく開閉。（小売販売は玄関先）,有,,,,,サバ,,,shop
222127,2024000131,静岡県,焼津市,大井川港桜海老商業協同組合,オオイガワコウサクラエビショウギョウキョウドウクミアイ,,,静岡県焼津市飯淵1960,,34.783598,138.294934,,,,10:00～16:00（事務局）,,,桜エビは全国で駿河湾だけでしか水揚げされていません。生やかき揚げで本場の味をお召し上がりください。,,,,,,054-622-0453,,,,http://www.kanemann.com/sakuraebi/index.html,【掲載先】焼津マップ,お買い物,魚・水産加工品,土曜・日曜・祝日,,無,,,,,,,有,,,,,桜エビ,,,shop
222127,2024000132,静岡県,焼津市,やましち鈴木商店,ヤマシチスズキショウテン,,,静岡県焼津市吉永1423-4,,34.789812,138.301112,,,,9:30～17:00（日曜・祝日は～16:00）,,,代々引き継ぐ伝統的な製法で仕上げた天日干し桜えびで農林水産大臣賞受賞。本当の美味しさと価値をお届け。https://yamashichi.shop-pro.jp/,,,普10台/マイクロ１台,,,054-622-7744,,,,https://yama-shichi.shop-pro.jp/,【掲載先】焼津マップ,お買い物,魚・水産加工品,水曜,,有,,〇,,,,,有,,,,,桜エビ;シラス,,,shop
222127,2024000133,静岡県,焼津市,やきつ家,ヤキツヤ,,,静岡県焼津市栄町3-1-13,,34.870425,138.319865,,,,10:00～17:30,,,元祖魚がし・鰹縞「森省」の取扱店。魚がしシャツ・鰹縞シャツを中心に水産加工品等の特産品を幅広く販売しているアンテナショップです。,,,※商店街の駐車場をご利用ください,,,054-627-6415,,,,http://812yakitsuya.web.fc2.com/,【掲載先】焼津マップ,お買い物,魚河岸シャツ・染物・衣料,水曜,,無,,,,,,出入口に段差はあるが、車いすでの入店可。,有,,,,,,,,shop
222127,2024000134,静岡県,焼津市,マルサ,マルサ,,,静岡県焼津市中港2-5-7,,34.871771,138.323563,,,,9:00～18:00(木曜15:00まで),,,"「魚河岸シャツ」3,850円～　豊富な柄、サイズも4Ｌまで揃えています。ウオテコ、ウオパン等パンツ類も充実！",,,普3台,,,054-629-6032,,,,https://marusa03.com/,【掲載先】焼津マップ,お買い物,魚河岸シャツ・染物・衣料,水曜・日曜,,無,,,,,,,有,,,,,,,,shop
222127,2024000135,静岡県,焼津市,リトルエンゼル　昭和通店,リトルエンゼルショウワドオリテン,,,静岡県焼津市本町4-10-17,,34.863452,138.321636,,,,10:00～17:00,,,焼津名物魚河岸シャツ　毎年新柄が増えて、一年中お買い物ができます。たのしい小物も手づくりで人気。,,,普5台,,,054-627-4977,,,,http://www.yaizu-uogashi.jp/,【掲載先】焼津マップ,お買い物,魚河岸シャツ・染物・衣料,火曜・水曜,,有,,〇,,,,※昭和通店、小川店ともバリアフリーあり,有,,,,,,,,shop
222127,2024000136,静岡県,焼津市,リトルエンゼル　小川店,リトルエンゼルコガワテン,,,焼津市西小川4-2-3,,34.853348,138.308556,,,,10:00～19:00,,,焼津名物魚河岸シャツ　毎年新柄が増えて、一年中お買い物ができます。たのしい小物も手づくりで人気。,,,普5台,,,054-627-3050,,,,http://www.yaizu-uogashi.jp/,【掲載先】焼津マップ,お買い物,魚河岸シャツ・染物・衣料,水曜,,有,,〇,,,,※昭和通店、小川店ともバリアフリーあり,有,,,,,,,,shop
222127,2024000137,静岡県,焼津市,髙橋染物店,タカハシソメモノテン,,,静岡県焼津市小川新町1-12-10,,34.85814,138.321897,,,,9:00～18:00,,,大漁旗、幟、のれん、手ぬぐい、魚河岸シャツ、魚がしバッグなどを専門に染めています。,,,普1台,,,054-628-2554,,,,,【掲載先】焼津マップ,お買い物,魚河岸シャツ・染物・衣料,不定休,,無,,,,,,,無,,,,,,,,shop
222127,2024000138,静岡県,焼津市,魚河岸シャツ　濱いち屋,ウオガシシャツハマイチヤ,,,静岡県焼津市中里542-1,,34.881883,138.319221,,,,11:00～18:00（7月～8月10:00～19:00）,,,子供用から大人用まで最大級の品揃えを誇る魚河岸シャツ&手ぬぐい専門店。通販サイトも充実しています。,,,普5台,,,054-295-6666,,,,https://sativa812.com/,【掲載先】焼津マップ,お買い物,魚河岸シャツ・染物・衣料,火曜（7～8月は無休）,,無,,,,,,,有,,,,,,,,shop
222127,2024000139,静岡県,焼津市,杉山安商店,スギヤマヤスシショウテン,,,静岡県焼津市三ケ名307,,34.854996,138.300326,,,,13:00～18:00,,,魚河岸シャツを販売しています。柄の豊富さと縫製の丁寧さが自慢です。５Ｌサイズも充実しています！,,,普8台/大型1台,,,054-628-3012,,,,https://sugiyasu-uogashi.com/,【掲載先】焼津マップ,お買い物,魚河岸シャツ・染物・衣料,5～10月は火曜/11～4月は土曜・日曜・祝日,,有,,〇,,,,※段差はありますが、店員が車いすの方も入れるようお手伝いします。,有,,,,,,,,shop
222127,2024000140,静岡県,焼津市,ハンドメイド＆雑貨のお店　ＫＵＲＩＳＡＮＣＨＩ,ハンドメイドアンドザッカノオミセクリサンチ,,,静岡県焼津市栄町3-3-32,,34.869799,138.320263,,,,10:00～17:00（日曜は15:00まで）,,,全国各地より80名以上の作家さんのハンドメイド作品を販売しています。駄菓子屋もあるので子連れでも楽しめます。※青木神社　西宮神社　船玉浦神社の御朱印あり（御朱印あり／御朱印帳あり）,,,※商店街の駐車場をご利用ください,,,なし,,,,https://www.instagram.com/kurisanchi/,【掲載先】焼津マップ,お買い物,魚河岸シャツ・染物・衣料,水曜,,無,,,,,,,有,,,,,,,,shop
222127,2024000141,静岡県,焼津市,ＧＡＭＥ・ランドリー　ＵＳＡ釣具店,ゲームランドリーユーエスエーツリグテン,,,静岡県焼津市石津港町2-4,,34.844585,138.327029,,,,6:00～23:00　冬季7:00～23:00　土日・祝祭日は30分繰り上げて営業（天候等諸事情により閉店を早める場合あり。詳しくはブログ参照）,,,"釣具各種（海づりセット3,300円～など）、釣エサ各種販売。夜間・早朝も。レンタル竿1日700円あります。保証金300円",,,普13台,,,054-624-5237,,,,http://gameusa.blog.fc2.com/,【掲載先】焼津マップ,お買い物,釣具,木曜,,無,,,,,,,有,,,,,,,,shop
222127,2024000142,静岡県,焼津市,村松釣具店,ムラマツツリグテン,,,静岡県焼津市利右衛門2720-20,,34.781527,138.298359,,,,7:00～18:00/冬期7:00～17:00（土曜・日曜・祝日は6:00～）,,,大井川港目の前。釣場案内、釣具、エサ、遊漁案内、釣情報他,,,普20台,,,054-622-2119,,,,,【掲載先】焼津マップ,お買い物,釣具,元日,,無,,,,,,,無,,,,,,,,shop
222127,2024000143,静岡県,焼津市,おかしの国,オカシノクニ,,,静岡県焼津市栄町5-10-25,,34.868695,138.320536,,,,11:00～17:30,,,たくさんのお菓子やおもちゃがあります。是非お気軽にお立ち寄りください。Twitter @okashino92,,,普2台,,,054-687-9177,,,,https://twitter.com/okashino92,【掲載先】焼津マップ,お買い物,お菓子,月曜～金曜,,無,,,,,,,有,,,,,,,,shop
222127,2024000144,静岡県,焼津市,御菓子司　角屋　,オカシツカサカドヤ,,,静岡県焼津市本町5-7-8,,34.862755,138.321584,,,,10:00～18:30,,,かつおサブレやみそまんじゅうや季節の和洋菓子を販売しています。,,,お店から左隣1台又は、アトレ庁舎駐車場をご利用ください,,,054-628-3870,,,,http://web.thn.jp/yaizukadoya/index.html,【掲載先】焼津マップ,お買い物,お菓子,水曜（行事により不定休）,,有,,〇,,,,,有,,,,,,,,shop
222127,2024000145,静岡県,焼津市,郷土菓子かしはる西焼津総本店,キョウドガシカシハルニシヤイヅソウホンテン,,,静岡県焼津市小柳津515-3,,34.85393,138.288454,,,,9:00～18:00,,,焼津土産に美味しいお菓子をぜひどうぞ！！他店舗情報、商品情報はＨＰへ　https://www.kashiharu.com/,,,普20台/大型1台,,,054-628-1100,,,,https://kashiharu.com/,【掲載先】焼津マップ,お買い物,お菓子,年中無休,,有,〇,〇,,,,身障者用駐車場有り。出入り口の段差無し。自動ドアあり。,有,,,,,,,,shop
222127,2024000146,静岡県,焼津市,焼津みそまん学会,ヤイヅミソマンガッカイ,,,静岡県焼津市栄町4丁目1-3,,34.866236,138.30226,,,,店舗により違いあり,,,30日限定（27日まで予約可）　焼津みそまん学会店舗詰め合わせの予約販売や体験型企画。地元文化菓子再認知の活動も。　,,,店舗により違いあり,,(会長　吉野）,054-628-3926,,,,https://naotora-code.tumblr.com/,【掲載先】焼津マップ,お買い物,お菓子,店舗により違いあり,,無（各店による）,,,,,,,有,,,,,,,,shop
222127,2024000147,静岡県,焼津市,トレジュエ,トレジュエ,,,静岡県焼津市祢宜島424-9,,34.840088,138.31077,,,,10:00～18:30,,,"トレーラーハウスを利用した新しいスタイルのケーキ屋さん。バースデーケーキ、プリンが人気です。　インスタ@tresjouer
",,,普４台,,,054-397-5053,,,,https://www.instagram.com/tresjouer/,【掲載先】焼津マップ,お買い物,お菓子,水曜・他 臨時休業あり,,無,,,,,,,無,,,,,,,,shop
222127,2024000148,静岡県,焼津市,あとりえMOMO,アトリエモモ,,,静岡県焼津市吉永1937-1,,34.791579,138.304148,,,,10:00～18:30,,,焼津のおいしいケーキ屋さん。キャラメルシュー、季節のフルーツのタルトも人気です。伊勢神宮奉納ドーナツなど焼き菓子もおすすめ。,,,普8台,,,054-622-2262,,,,https://www.ateliermomo.com/,【掲載先】焼津マップ,お買い物,お菓子,年中無休,,有,,〇,,,,,有,,,,,,,,shop
222127,2024000149,静岡県,焼津市,茶郷山いち,サゴウヤマイチ,,,静岡県焼津市駅北3-15-28,,34.874729,138.31492,,,,9:00～18:00,,,緑茶や米粉の焼ドーナツを販売しています。最新情報はインスタグラムで。35yamaichi,,,普5台,,,054-629-6121,,,,https://www.instagram.com/35yamaichi/,【掲載先】焼津マップ,お買い物,お茶,日曜,,有,〇,〇,,,,,有,,,,,,,,shop
222127,2024000150,静岡県,焼津市,お茶の丸玉園　駅前通本店,オチャノマルタマエンエキマエドオリホンテン,,,静岡県焼津市栄町4-1-4　　,,34.870362,138.319592,,,,9:00～18:00　　　　,,,焼津駅より歩いて3分。自家工場にて仕上げています。味に自信あり!その他、お茶を使った菓子、海苔、椎茸などいろいろな商品を取り揃えております。,,,普2台　　　　　　　　　　　　　　　,,駅前通本店,054-628-4020　,,,,http://www.marutamaen-shop.com/,【掲載先】焼津マップ,お買い物,お茶,日曜（5・12月は日曜営業）,,無,,,,,,,有,,,,,,,,shop
222127,2024000151,静岡県,焼津市,お茶の丸玉園 登呂田店（SANOWA）,オチャノマルタマエントロダテン,,,静岡県焼津市東小川5-9-17,,34.857072,138.310677,,,,9:30～18:00(LO.17:00),,,登呂田店では喫茶スペースを併設し、こだわりの抹茶スイーツ（パフェなど）を販売しております。,,,普10台,,登呂田店,054-621-5501,,,,http://www.marutamaen-shop.com/,【掲載先】焼津マップ,お買い物,お茶,水曜（5･8･12月は休まず営業）,,無,,,,,,,有,,,,,,,,shop
222127,2024000152,静岡県,焼津市,（株）ハットリ製茶,ハットリセイチャ,,,静岡県焼津市三ケ名787-1,,34.859419,138.298753,,,,9:00～18:00,,,お茶・紅茶・コーヒー豆・抹茶があります。コーヒー豆はご注文頂いてから焼きますので焼き立てが楽しめます。,,,普10台,,,054-629-5057,,,,https://hattori2020.com/,【掲載先】焼津マップ,お買い物,お茶,"	日曜・祝日",,有,,〇,,,,,有,,,,,,,,shop
222127,2024000153,静岡県,焼津市,長峰製茶三和本店,ナガミネセイチャミワホンテン,,,静岡県焼津三和60,,34.822801,138.302095,,,,9:30～18:00　　　,,,焼津三和本店、長峰花カフェ、桜名所「栃山堤の富士見桜」を背景に絶好のロケーションにあります。,,,普50台/大型1台　　　　　　　　　　　　　　　　　　　　,,三和本店,054-625-1251　,,,,http://www.rakuten.co.jp/nagamine/,【掲載先】焼津マップ,お買い物,お茶,年中無休（年末年始を除く）,,有,,〇,,,,店舗入口は、車いす用スロープ有り。,有,,,,,,,,shop
222127,2024000154,静岡県,焼津市,長峰製茶 さかなセンター店,ナガミネセイチャサカナセンターテン,,,静岡県焼津市八楠4-13-7,,34.880435,138.303333,,,,9:00～17:00,,,明治創業のお茶屋、長峰製茶のさかなセンター店です。抹茶ソフトもあります。,,,さかなｾﾝﾀｰに準ずる,,さかなセンター店,054-629-3321,,,,http://www.rakuten.co.jp/nagamine/,【掲載先】焼津マップ,お買い物,お茶,隔週水曜,,有,〇,〇,〇,〇,,さかなセンターに準ずる,有,,,,,,,,shop
222127,2024000155,静岡県,焼津市,山一園製茶（株）,ヤマイチエンセイチャ,,,静岡県焼津市上新田862-1,,34.815393,138.273768,,,,9:00～18:00,,,棒茶専門店として1966年創業。日本で一番棒茶の種類が多い店。人気No1は特選棒茶。熱湯棒茶が人気赤丸急上昇！,,,普20台/大型2台,,,054-622-1724,,,,https://www.yamaichien.com/,【掲載先】焼津マップ,お買い物,お茶,元日のみ,,無,,,,,,,有,,,,,,,,shop
222127,2024000156,静岡県,焼津市,駿河の地酒屋　仲野冨士男酒店,スルガノジザケヤナカノフジオサケテン,,,静岡県焼津市中港1-3-27,,34.871569,138.322395,,,,9:00～18:30,,,磯自慢特約店。安心な品質管理のもと蔵元直送、志太の地酒、地元限定品に出会える店。駅より徒歩５分。,,,普4台,,,054-628-3529,,,,https://www.yaizu.gr.jp/spot/2872,【掲載先】焼津マップ,お買い物,お酒,日曜（祝日・年末は営業）,,無,,,,,,,無,,,,,,,,shop
222127,2024000157,静岡県,焼津市,リカーズ　グリーン,リカーズグリーン,,,静岡県焼津市中新田251-3,,34.84461,138.291743,,,,9:00～20:00,,,「磯自慢、初亀、喜久酔、臥龍梅、杉錦、若竹、志太泉・・・など」こだわりの銘酒を取り揃えました。,,,普10台,,,054-624-3210,,,,https://green.ocnk.net/,【掲載先】焼津マップ,お買い物,お酒,水曜,,有,,〇,,,,段差無し。,有,,,,,,,,shop
222127,2024000158,静岡県,焼津市,蔵元より手造りの味を　原田酒店,クラモトヨリテヅクリノアジヲハラダサケテン,,,静岡県焼津市小川3151,,34.850131,138.320026,,,,9:00～19:00,,,焼津の銘酒”磯自慢”をはじめ、静岡県内の地酒を中心とした品揃えです。,,,普3台,,,054-624-2482,,,,http://www.haradasaketen.com/,【掲載先】焼津マップ,お買い物,お酒,水曜,,有,,〇,,,,段差無し。,有,,,,,,,,shop
222127,2024000159,静岡県,焼津市,下村こうじ屋,シモムラコウジヤ,,,静岡県焼津市本町2-15-6,,34.86653737,138.3228475,,,,9:00～17:00,,,国産素材で作ったこだわりの発酵食品専門店。味噌、金山寺、甘酒販売中。甘酒はすぐに飲めるカップ販売も！,,,普6台,,,054-628-5310,,,,https://www.shimomura-koujiya.com,【掲載先】焼津マップ,お買い物,その他買い物,日曜・祝日・土曜午後,,無,,,,,,,有,,,,,,,,shop
222127,2024000160,静岡県,焼津市,JAおおいがわ「まんさいかん」まんさいかん焼津,ジェイエーオオイガワマンサイカンマンサイカンヤイヅ,,,静岡県焼津市焼津4-8-5,,34.863206,138.31475,,,,9:00～17:00,,,農家が丹精込めて生産した「新鮮・安全・安心」な農畜産物や加工品が「まんさい」です。話題の「金芽米」も。,,,普88台　　　　　　　　　　　　　　,,まんさいかん焼津,054-626-8822,,,,https://ooigawa.ja-shizuoka.or.jp/mansaikan/index#what,【掲載先】焼津マップ,お買い物,その他買い物,毎月第2火曜（7・8月を除く）年始（1月1日～4日）3月31日、9月30日,,有,〇,〇,〇,〇,,段差無し。車いす対応トイレ有り。,無,,,,,,,,shop
222127,2024000161,静岡県,焼津市,JAおおいがわ「まんさいかん」 まんさいかん静浜,ジェイエーオオイガワマンサイカンマンサイカンシズハマ,,,静岡県焼津市宗高1-2,,34.814155,138.281471,,,,9:00～17:00,,,農家が丹精込めて生産した「新鮮・安全・安心」な農畜産物や加工品が「まんさい」です。話題の「金芽米」も。,,,普91台,,まんさいかん静浜,054-664-0831,,,,https://ooigawa.ja-shizuoka.or.jp/mansaikan/index#what,【掲載先】焼津マップ,お買い物,その他買い物,毎月第2火曜（7・8月を除く）年始（1月1日～4日）3月31日、9月30日,,有,〇,〇,〇,〇,,段差無し。車いす対応トイレ有り。,無,,,,,,,,shop
222127,2024000162,静岡県,焼津市,岩崎蒟蒻店,イワザキコンニャクテン,,,静岡県焼津市小川新町1-5-14,,34.859261,138.320597,,,,9:00～16:00,,,創業昭和2年。女性職人が作る伝統的なばた練り製法の手づくりこんにゃく専門店です。,,,普１台,,,054-628-2788,,,,https://iwazaki-konnyaku.jp/,【掲載先】焼津マップ,お買い物,その他買い物,土曜・日曜・祝日,,有,,〇,,,,,有,,,,,,,,shop
222127,2024000163,静岡県,焼津市,SWEN焼津店,スウェンヤイヅテン,,,静岡県焼津市東小川1-8-4,,34.85964345,138.3128686,,,,平日10:30～20:00　土日祝10:00～20:00,,,キャンプライフスタイルをメインコンセプトに日常と余暇と自然を繋げるツールとしてのブランド商品を展開。,,,普30台（共有約40台）,,,054-621-5015,,,,http://www.casa-swen.com/index.htm,【掲載先】焼津マップ,お買い物,その他買い物,水曜,,有,〇,〇,,〇,エレベータ有,,有,,,,,,,,shop
222127,2024000164,静岡県,焼津市,osoto雑貨　（オソトザッカ）,オソトザッカ,,,静岡県焼津市城之腰48-1,,34.860649,138.323709,,,,10:00～19:00（季節により変動有）,,,初心者からコアなキャンパーまで楽しめるアウトドア用品やオリジナル商品を販売していて、カフェも併設しています。,,,普4台,,,054-625-9115,,,,https://www.osotozakka.com/,【掲載先】焼津マップ,お買い物,その他買い物,月曜,,無,,,,,,,有,,,,,,,,shop
222127,2024000165,静岡県,焼津市,吉村直売所　静岡焼津店,ヨシムラ,,,静岡県焼津市越後島408,,34.8828907,138.2973921,,,,9:00～16:30,,,お茶に合うオリジナルのチョコレートなどのお菓子や、茶器を販売しているパッケージメーカーです。,,,普5台,,,054-627-6211,,,,https://www.yaizu.gr.jp/spot/1526,【掲載先】焼津マップ,お買い物,その他買い物,土曜・日曜・祝日,,有,,〇,,〇,,,有,,,,,,,,shop
222127,2024000166,静岡県,焼津市,ジュエルツチヤ,ジュエルツチヤ,,,静岡県焼津市柳新屋882,,34.858527,138.288533,,,,10:00～19:00,,,宝石の輸入からデザイン・製作までを手掛けるオリジナルジュエリーを中心に真珠などが揃う宝石専門店です。,,,普35台,,,054-629-1670,,,,https://www.rubida.com/,【掲載先】焼津マップ,お買い物,その他買い物,水曜,,有,,〇,,,,,有,,,,,,,,shop
222127,2024000167,静岡県,焼津市,大鈴屋豆腐店,オオスズヤトウフテン,,,静岡県焼津市東小川8-12-8,,34.849386,138.308518,,,,10:00～18:00,,,おからを出さない特殊製法で作る豆腐店。美味しく体にも環境にも良い一石三鳥の製法で作る豆腐製品をぜひご堪能下さい。,,,普8台,,,054-665-6267,,,,https://www.suruga2525.com/,【掲載先】焼津マップ,お買い物,その他買い物,火曜,,無,,,,,,,有,,,,,,,,shop
222127,2024000168,静岡県,焼津市,ガラスアートのアルカイック,ガラスアートノアルカイック,,,静岡県焼津市東小川4-15-16,,34.852056,138.315504,,,,10:00～19:00,,,トロフィー、ワインボトル、グラス等にイラスト、お名前、似顔絵等を彫刻。誕生日、結婚祝い、還暦祝い等の記念品を制作販売しています。,,,普6台,,,054-628-7117,,,,https://fuji-arc.net/,【掲載先】焼津マップ,お買い物,その他買い物,木曜,,無,,,,,,,有,,,,,,,,shop
222127,2024000169,静岡県,焼津市,石窯パン工房　パトン焼津店,イシガマパンコウボウパトンヤイヅテン,,,静岡県焼津市小川2826,,34.848304,138.312938,,,,7:00～19:00,,,人気のカレーパンや駿河湾海洋深層水を使ったフランスパンなど。厳選素材と手作り製法で自信をもって焼き上げています。,,,普14台　軽5台,,,054-656-0810,,,,https://paton0810.com/,【掲載先】焼津マップ,お買い物,その他買い物,月曜（祝日の場合翌日休）,,有,〇,,,,,,有,,,,,,,,shop
222127,2024000170,静岡県,焼津市,しぞ～かおでん・お弁当・おむすびの天神屋　ねぎ島店,シゾ～カオデンオベントウオムスビノテンジンヤネギシマテン,,,静岡県焼津市祢宜島541-4,,34.838884,138.308173,,,,9:00～20:00,,,「かわいい三角屋根が目印」しぞ～かおでんでお出迎え！！元祖たぬきむすび、お弁当など取り揃えております。,,,普6台,,,054-625-1233,,,,http://www.tenjinya.com/,【掲載先】焼津マップ,お買い物,その他買い物,年中無休（年末年始休日あり）,,有,,〇,,,,出入口に段差有り、介助者がいれば車いすで入店可。,有,,,,,,,,shop
222127,2024000171,静岡県,焼津市,石津マート,イシヅマート,,,静岡県焼津市石津港町31-3,,34.8426298,138.3264258,,,,9:00～19:00,,,新鮮なお刺身と手作りお惣菜が人気です。はんぺんフライ32円、へそフライ162円とコスパ最強の港町の台所です。,,,普12台,,,054-624-7757,,,,https://www.instagram.com/ishizumart/,【掲載先】焼津マップ,お買い物,その他買い物,日曜・祝日・第１月曜,,有,,〇,,,,,有,,,,,,,,shop
222127,2024000172,静岡県,焼津市,おおいがわAkindo事業協同組合,オオイガワアキンドジギョウキョウドウクミアイ,,,静岡県焼津市宗高900（大井川商工会内）,,34.803875,138.284525,,,,8:30～17:15（事務局）,,,焼津市大井川地区の商店会の組合です。お得なポイントカード「Akindoカード」を是非ご利用ください。,,,普8台,,,054-622-0393,,,,https://o-akindo.com/,【掲載先】焼津マップ,お買い物,その他買い物,土曜・日曜・祝日・年末年始,,無,,,,,,,有,,,,,,,,shop
222127,2024000173,静岡県,焼津市,カネジュウ食品（株）,カネジュウショクヒンカブシキガイシャ,,,静岡県焼津市吉永7-1,,34.7975786,138.2791427,,,,9:00～16:00,,,佐川急便大井川営業所の隣です。味噌、金山寺、あま酒などマルシェで人気の商品も取り揃えております。,,,普10台,,,054-622-5515,,,,https://kanejyu.com/,【掲載先】焼津マップ,お買い物,その他買い物,土曜・日曜・祝日・お盆・年末年始,,無,,,,,,,有,,,,,,,,shop
222127,2024000174,静岡県,焼津市,贈りたくなるギフト　シャディ　カネショーギフト,オクリタクナルギフトシャディカネショーギフト,,,静岡県焼津市飯淵539,,34.787752,138.281918,,,,10:00～16:00,,,婚礼・出産・快気祝・仏事・名入れタオル・粗品・記念品専門店。まずはお問合わせください。,,,普10台/大型1台,,,054-622-6544,,,,http://oigawa-s.net/kanesyo/,【掲載先】焼津マップ,お買い物,その他買い物,火曜・水曜・木曜　（季節により変動あり）,,有,,〇,,,,出入口に段差はあるが、マットを引いて解消。店内は段差無し。,有,,,,,,,,shop
222127,2024000175,静岡県,焼津市,自家焙煎珈琲　めぐみ珈琲ラボ,ジカバイセンコーヒーメグミコーヒーラボ,,,静岡県焼津市栄町1-2-14（焼津市観光協会内で販売）,,34.87157,138.318799,,,,8:30～17:15,,,"小泉八雲の作品を読みながら珈琲と一緒に、八雲の世界へどうぞ！八雲珈琲&妖怪珈琲＆鰹節珈琲
※八雲珈琲は焼津小泉八雲記念館・茶郷山いちでも販売中",,,なし,,,,,,,https://www.instagram.com/megumi_coffee_lab/,【掲載先】焼津マップ:【mail】megumi.coffeelab@gmail.com,お買い物,その他買い物,年末年始,,無,,,,,,,有,,,,,,,,shop
222127,2024000176,静岡県,焼津市,深層水体験施設アクアスやいづ,シンソウスイタイケンシセツアクアスヤイヅ,,,静岡県焼津市鰯ケ島136-26,,34.857051,138.326705,,,,火曜～金曜9:00～22:00/土曜9:00～21:00/日曜・祝日9:00～18:00,,,深層水や海泥・海藻などの海の恵みを使った健康法「タラソテラピー」とエアロビクス・ヨガ・ピラティスなど。,,,普162台/大型3台,,,054-621-0200,,,,https://aquas.blueearth.co.jp/,【掲載先】焼津マップ,スポーツその他,スポーツ施設,月曜,,有,〇,〇,〇,〇,,入口にスロープ有り。車いす対応トイレ有り。,有,,,,,,,,commercial
222127,2024000177,静岡県,焼津市,（有）焼津マリン,ヤイヅマリン,,,静岡県焼津市中港5-18-5,,34.875039,138.329049,,,,9:00～18:00,,,ボート免許をお持ちなら便利で安心、レンタルボートをどうぞ。海から見る、大崩海岸・富士山は最高ですよ。,,,ご相談ください,,,054-627-6171,,,,http://www.yaizumarine.co.jp/,【掲載先】焼津マップ,スポーツその他,その他施設,火曜,,無,,,,,,,有,,,,,,,,commercial
222127,2024000178,静岡県,焼津市,アンビア　ツアーズ,アンビアツアーズ,,,静岡県焼津市栄町2-2-21　アンビアパークビル２F,,34.871799,138.319502,,,,10:00～15:00,,,個人旅行から団体貸切まで旅の感動をお手伝い！こだわりの国内・海外旅行をご提案致します。,,,普236台,,,054-620-7731,,,,http://www.ambia.co.jp/,【掲載先】焼津マップ,スポーツその他,その他施設,水曜・土曜・日曜・祝日,,有,〇,〇,,,,エレベーター有。段差がなく車いすにて来店可能。,有,,,,,,,,commercial
222127,2024000179,静岡県,焼津市,PLAY BALL！CAFE,プレイボールカフェ,,,静岡県焼津市栄町4-２-６,,34.869721,138.320031,,,,10:00～18:00（日による）,,,カフェ＆コミュニティスペース。何かをプレイボールできる場を目指して、イベントやワークショップなども開催しています。,,,商店街共通駐車場,,,070-9235-0157,,,,https://playball.cafe/,【掲載先】焼津マップ,スポーツその他,その他施設,不定休,,無,,,,,,,有,,,,,,,,commercial
222127,2024000180,静岡県,焼津市,みんなの図書館さんかく,ミンナノトショカンサンカク,,,静岡県焼津市栄町3-3-33,,34.86984,138.320248,,,,通常14:00～18:00,,,駅前通り商店街の私設図書館。50以上ある一箱本棚には各オーナーが選書した本が並び、貸出もしています。,,,商店街の駐車場または付近の有料駐車場をご利用ください,,,090-6099-3313,,,,https://www.sancacu.com/,【掲載先】焼津マップ,スポーツその他,その他施設,不定休※開館日時はHPの営業カレンダーをご覧ください。,,無,,,,,,,有,,,,,,,,commercial
222127,2024000181,静岡県,焼津市,あさだレンタカー,アサダレンタカー,,,静岡県焼津市本町3-1-16,,34.865856,138.320254,,,,8:00～19:30,,,軽四車～普通車御用意できます（ETC・ナビ付車有り）。平日は駅送迎できます。お気軽にお電話ください。,,,なし,,,054-626-0488,,,,http://www.gsr-asada.com/,【掲載先】焼津マップ,スポーツその他,レンタカー,日曜・祝日,,無,,,,,,,有,,,,,,,,car_rental
222127,2024000182,静岡県,焼津市,ホテルアンビア松風閣,ホテルアンビアショウフウカク,,,静岡県焼津市浜当目海岸通り星が丘,,34.884753,138.337298,,,,,,"標準　23,250円～",富士山と駿河湾一望のおもてなし！自慢の絶景と海の幸をお楽しみください。,,,普150台/大型20台,,,054-628-3131,,,,https://www.syofukaku.com/,【掲載先】焼津マップ,宿泊,観光ホテル,,,有,〇,〇,〇,〇,,対応している客室、トイレ、スロープ有り。,有,,123室　591名様収容,1,,,,,lodging
222127,2024000183,静岡県,焼津市,焼津グランドホテル,ヤイヅグランドホテル,,,静岡県焼津市浜当目1489,,34.883258,138.337117,,,,予約センター　9:30～18:00,,"1泊2食付　標準22,000円～（状況により変動あり）",駿河湾と富士山を一望。アクティビティなどのコンテンツが充実したオールインクルーシブ・リゾート。・,,,普100台/大型要相談,,,054-627-1121,,,,https://www.sn-hotels.com/ygh/,【掲載先】焼津マップ,宿泊,観光ホテル,,,有,〇,〇,〇,〇,,スロープ、多目的トイレ３ヶ所、大浴場にシャワーチェア有り。,有,,137室450名様収容,1,,,,,lodging
222127,2024000184,静岡県,焼津市,亀の井ホテル焼津,カメノイホテルヤイヅ,,,静岡県焼津市浜当目1375-2,,34.883084,138.333097,,,,,,"T１泊２食付13,0２0円～　",全室オーシャンビュー。駿河湾を見下ろす高台の温泉ホテル。,,,普約60台,,,054-627-0661,,,,https://kamenoi-hotels.com/yaizu/,【掲載先】焼津マップ,宿泊,観光ホテル,,,有,〇,〇,〇,,,バリアフリールーム１室あり。館内、浴槽に手すり有り。（ベッド2台、最大3名まで宿泊可能）客室内に天井走行リフトなし,有,,40室（露天風呂付特別和洋5・和洋2・洋14・和19）,1,,,,,lodging
222127,2024000185,静岡県,焼津市,くれたけイン焼津駅前,クレタケインヤイヅエキマエ,,,静岡県焼津市駅北1-2-2,,34.873119,138.318288,,,,,,"１泊朝食付6,600円～",焼津駅北口から30秒♪自慢は無料朝食バイキングと男女別浴場。笑顔で皆様をお迎え致します。,,,普50台/大型　要相談,,,054-620-0011,,,,http://www.kuretake-inn.com/yaiz/,【掲載先】焼津マップ,宿泊,ビジネスホテル,,,有,〇,〇,〇,,,身障者用のお部屋あり（１室）（広め、お風呂も入れる）,有,,117室　　125名様収容,,,,,,lodging
222127,2024000186,静岡県,焼津市,ウィークリー翔　焼津,ウィークリーショウヤイヅ,,,静岡県焼津市中港1-2-11,,34.872399,138.321305,,,,,,"S2,300円～T5,900円",焼津駅徒歩3分、全室ミニキッチン・インターネット対応。7泊・30泊で更に低料金。ウィークリーマンション。,,,普18台,,,054-620-6055,,,,https://www.weekly-sho.com/,【掲載先】焼津マップ,宿泊,ビジネスホテル,,,無,,,,,,,有,,54室（洋54）70名様収容,,,,,,lodging
222127,2024000187,静岡県,焼津市,ホテルセレクトイン焼津駅前,ホテルセレクトインヤイヅエキマエ,,,静岡県焼津市栄町2-3-5,,34.871375,138.319709,,,,,,"1泊S5,200円～（日によって変動有）",朝食が自慢。笑顔溢れるセレクトインへ是非お越しください。,,,普23台,,,054-627-3436,,,,https://select-hotels.jp/yaizu/,【掲載先】焼津マップ,宿泊,ビジネスホテル,,,無,,,,,,,有,,37室　最大72名様収容,,,,,,lodging
222127,2024000188,静岡県,焼津市,ホテルシーラックパル焼津,ホテルシーラックパルヤイヅ,,,静岡県焼津市栄町2-6-17,,34.871347,138.321266,,,,,,"1泊朝食付Ｓ6,490円、D8,580円、Ｔ9,680円",焼津駅徒歩3分。無料平面駐車場完備。全館全室Wｉ-Fｉ完備。ＶＯＤ無料視聴。お客様ご自身のスマホで漫画・雑誌無料で見放題。,,,普64台,,,054-620-5586,,,,https://www.sealuckpal.co.jp/yaizu/,【掲載先】焼津マップ,宿泊,ビジネスホテル,,,無,,,,,,,有,,108室（うちツイン15室・ダブル18室利用可）,,,,,,lodging
222127,2024000189,静岡県,焼津市,HOTEL nanvan焼津,ホテルナンバンヤイヅ,,,静岡県焼津市越後島360-3,,34.885201,138.296755,,,,,,"１泊（無料朝食付）S7,500円～D12,000円～T15,000円～　",東名焼津ICより1分・新東名藤枝岡部ICより7分　朝食無料（まぐろの漬けが食べ放題）,,,普125台/中型以上は要予約　ホテル⇔焼津駅間無料送迎あり（要予約）,,,054-628-8835,,,,https://www.nanvan.jp/,【掲載先】焼津マップ,宿泊,ビジネスホテル,,,有,〇,,〇,,,,有,,154室全室有線LAN 無線LAN無料接続対応,,,,,,lodging
222127,2024000190,静岡県,焼津市,ホテルルートイン焼津インター,ホテルルートインヤイヅインター,,,焼津市八楠1-27-7,,34.881928,138.3026396,,,,,,"1泊朝食付　S6,900円～T10,800円～",東名高速 焼津IC目の前！無料駐車場完備 ※先着順・朝食無料サービス・大浴場あり・ＷＯＷＯＷ全室で無料視聴可,,,普119台/大型要相談,,,054-671-0001,,,,https://www.route-inn.co.jp/,【掲載先】焼津マップ,宿泊,ビジネスホテル,,,無,,,,,,,有,,135室200名様収容,,,,,,lodging
222127,2024000191,静岡県,焼津市,西焼津セントラルホテル,ニシヤイヅセントラルホテル,,,静岡県焼津市柳新屋858,,34.85787,138.290313,,,,,,"1泊朝食付きS4,700円 T8,000円　",無料駐車場完備 ※先着順・朝食無料サービス・大浴場あり・ＷＯＷＯＷ全室で無料視聴可,,,普70台/大型要相談,,,054-626-2222,,,,http://www.nishiyaizu.com/,【掲載先】焼津マップ,宿泊,ビジネスホテル,,,無,,,,,,,有,,98室（洋98）102名様収容,,,,,,lodging
222127,2024000192,静岡県,焼津市,湊（みなと）のやど汀家（みぎわや）,ミナトノヤドミギワヤ,,,静岡県焼津市本町1-14-2,,34.868176,138.324766,,,,,,"1泊2食付（2名1室）1名様32,000円～44,000円",海辺の露天風呂付客室の小宿。どこか懐かしく温かい居心地のよい宿で癒しのひとときをお過ごしください。,,,普10台/大型1台,,,054-628-3155,,,,http://www.migiwaya.jp/,【掲載先】焼津マップ,宿泊,旅館,,,有,〇,〇,,〇,,車イス対応の部屋有り。床フラット。手すり有り。２階にもエレベターで行ける。,有,,8室（和洋8）32名様収容,1,,,,,lodging
222127,2024000193,静岡県,焼津市,月と鮪 石上,ツキトマグロイシガミ,,,静岡県焼津市小浜1047,,34.895148,138.345527,,,,9:00～11:00　　15:00～21:00,,"1泊2食付33,000円～",2022年7月リニューアルオープン。ゆったりとたゆたう月のように流れる贅沢な時間と極上南鮪のフルコースをお愉しみ下さい。,,,普8台,,,054-627-1636,,,,https://www.magurono-oyado-ishigami.net/,【掲載先】焼津マップ,宿泊,旅館,不定休,,無,,,,,,,有,,5室（和洋）10名様収容,1,,,,,lodging
222127,2024000194,静岡県,焼津市,土筆旅館,ツクシリョカン,,,静岡県焼津市栄町1-11-10,,34.870557,138.316513,,,,,,"1泊朝食6,160円～、　1泊2食付き8,140円～",焼津駅より徒歩5分。地魚料理が自慢。ワーケーション・ビジネス・ゼミ・スポーツ合宿に最適。,,,普10台/大型2台,,,054-627-7378,,,,https://tukusiryokan.com/,【掲載先】焼津マップ,宿泊,旅館,,,有,〇,〇,,,,館内の段差を少なくしている。手すり有り。必要な方には折りたたみベット対応可。,有,,12室（和12）30名様収容,,,,,,lodging
222127,2024000195,静岡県,焼津市,ビジネスホテル　翠峰,ビジネスホテルスイホウ,,,静岡県焼津市上小杉310-1,,34.81472,138.280294,,,,,,"1名様（本館）7,480円～（別館）8,030円～",東名大井川焼津藤枝スマートICより5分。ビジネス・スポーツ・ご家族連れ 四季折々日替わりメニューでおもてなし。,,,普8台/大型1台,,,054-622-0028,,,,http://suiho.info/,【掲載先】焼津マップ;【FAX】054-622-1955,宿泊,旅館,,,無,,,,,,,有,,10室（和9・洋1）　35名様収容,,,,,,lodging
222127,2024000196,静岡県,焼津市,ビジネスホテル大井川,ビジネスホテルオオイガワ,,,静岡県焼津市中島452-1,,34.791629,138.27688,,,,,,"S6,600円（1泊２食）",2020年リニューアル！アットホームな雰囲気でおもてなし。全室Wi-Fi完備。駐車場無料。ランドリーあります。,,,普10台/大型2台,,,080-5100-2445,,,,https://bhoigawa.com/,【掲載先】焼津マップ,宿泊,旅館,,,無,,,,,,,有,,16室16名様収容（合宿等の場合は応相談）,,,,,,lodging
222127,2024000197,静岡県,焼津市,民宿　お食事処　柳亭,ミンシュクオショクジドコロヤナギテイ,,,静岡県焼津市浜当目2-19-25,,34.876228,138.33101,,,,,,"1泊2食付10,200円～",海水浴場手前。駿河湾から望む朝日が絶景。新鮮な海の幸を楽しみながらくつろげる静かな宿。,,,普7台/大型要相談,,,054-671-1300,,,,http://park6.wakwak.com/~yanagitei/,【掲載先】焼津マップ,宿泊,民宿,,,無,,,,,,,有,,2室（和2）10名様収容,,,,,,lodging
222127,2024000198,静岡県,焼津市,CRAFTHOTEL 西町　DOCK,クラフトホテルニシマチドック,,,静岡県焼津市駅北2-8-9,,34.8724648,138.3157379,,,,,,S4500円～　D6500円～,ゲストハウス風のホテルです。１階にまちの休憩・交流スペースがあります。３階には宿泊者専用の調理・作業スペースがあります。,,,周辺コインパーキング,,,080-5461-7343,,,,https://www.instagram.com/hotel.yaizu/,【掲載先】焼津マップ,宿泊,民宿,,,無,,,,,,,有,,21室35名様収容,,,,,,lodging
222127,2024000199,静岡県,焼津市,焼津船員保険保養所　やいづマリンパレス,ヤイヅセンインホケンホヨウジョヤイヅマリンパレス,,,静岡県焼津市本町1-6-3,,34.870074,138.322398,,,,,,"8,900円～",天然温泉、宴会場、舟盛、鮪カブト焼など海鮮料理。,,,普15台,,,054-629-1011,,,,https://www.sempos.or.jp/yaizu/,【掲載先】焼津マップ,宿泊,公共,,,無,,,,,,,有,,28室（和19・洋3・和洋6）93名様収容,1,,,,,lodging
222127,2024000200,静岡県,焼津市,bo-kaap YAIZU,ボカープヤイヅ,,,静岡県焼津市本町1-5-15,,34.8695184,138.3231059,,,,,,"１棟貸切 19,900円~（ご宿泊人数、時期によって料金が変動します）",南アフリカのケープタウンにあるカラフルな街並みが特徴の港町「bo-kaap」をイメージした貸別荘。心おどる室内と可愛らしい雑貨を楽しめます。,,,普1台,,,050-7123-3008,,,,https://bo-kaap-yaizu.com,【掲載先】焼津マップ,宿泊,一棟貸施設,,,無,,,,,,,有,,4LDK　8名まで（8名以上は要相談）,,,,,,lodging
222127,2024000201,静岡県,焼津市,焼津ハウスホテル,ヤイヅハウスホテル,,,静岡県焼津市本町4-8-28,,34.864222,138.320595,,,,,,"１棟28,000円～　Airbnb、じゃらんにて御予約承り中",別荘風ホテル。長期滞在、大人数向けで炊飯、自炊、洗濯可です。釣り、ご家族、グループ旅行、同窓会等でもご利用ください。,,,普1台,,,090-1208-1708,,,,https://yaizuhousehotel.com/,【掲載先】焼津マップ,宿泊,一棟貸施設,,,無,,,,,,,有,,ダイニングキッチン1、1階奥和室ダブルベッド2台2名様、1階手前　和室布団3組3名様、2階洋室ベッド3名様　最大8名様宿泊可能。セミナールーム、トイレ2、お風呂1,,,,,,lodging
222127,2024000202,静岡県,焼津市,庭のお宿『帆や』～hoya～,ニワノオヤドホヤ,,,静岡県焼津市城之腰119‐1,,34.861845,138.323886,,,,,,"1名16,500円・4名以上66,000円～Airbnbにて御予約承り中",焼津水産業発展に寄与した服部安次郎生家をリノベーションした施設。レンタルスペース・宿泊等多様にご利用いただけます。,,,普2台,,,054-624-1355,,,,https://niwayado.com/,【掲載先】焼津マップ,宿泊,一棟貸施設,,,有,,〇,,,,,有,,5室（和5）10名様収容（10名以上の場合要相談）,,,,,,lodging
222127,2024000203,静岡県,焼津市,（一社）焼津市観光協会,ヤイヅシカンコウキョウカイ,,,静岡県焼津市栄町1-2-14,,34.871561,138.318783,,,,8:30～17:15,,,焼津駅南口より徒歩1分。市内の観光案内やレンタサイクル、荷物預かりなど。地場産品や温泉の素「やいづの湯」、やいちゃんグッズも販売中！,,,商店街の駐車場をご利用ください,,,054-626-6266,,,,,【掲載先】焼津マップ,スポーツその他,その他施設,年末年始,,有,,〇,,,,,有,,,,,,,,commercial
222127,2024900001,静岡県,焼津市,みsora 福祉タクシー,ミソラフクシタクシー,,,静岡県焼津市三右衛門新田216-8,,34.8482841,138.3019098,月火水木金,08:00,17:00,08:00～17:00 タクシーは事前予約制ですので、土日祝または時間外についてはご相談ください。,,運賃に別途介助料(700円～)をいただきます。,福祉タクシーをはじめ、移動のサービスを提供しています。外出先での付添が可能ですので、あなたのおでかけをトータル的にサポートします。,,,なし,,,054-659-6012,,,,https://misoranr2019.wixsite.com/website,一般募集で情報提供いただいた情報です。,スポーツその他,その他施設,日土祝,,有,,,,,,タクシー車両は、車椅子のまま乗降できます。同乗者様も1～2名乗車できます。,有,,,,,,,,commercial
222127,2024900002,静岡県,焼津市,スタジオ　ピクチャーズ,スタジオ　ピクチャーズ,,,静岡県焼津市小土1140-11,,34.8622808,138.2914511,日月火水金土祝,09:30,19:00,09:30～19:00 ,,,オシャレな自然光の溢れるフォトスタジオです。家族写真から就活写真、七五三、成人式、ベビーまで可愛い写真ならお任せ下さい。特に七五三衣装は着物、ドレス、スーツまで豊富に取り揃えております。,,,普通車6台,,,054-621-2558,,,,http://s-pictures6512.juno.bindsite.jp,一般募集で情報提供いただいた情報です。,スポーツその他,その他施設,木,,無,,,,,,,有,,,,,,,,commercial
222127,2024900003,静岡県,焼津市,焼津谷島屋登呂田店,ヤイヅヤジマヤトロタテン,,,静岡県焼津市西小川2-1-8,,34.8595728,138.3111146,日月火水木金土祝,09:30,21:20,09:30～21:20 基本年中無休です。年末年始は営業時間変更の場合もあります。,,,焼津市西小川にある書店です。焼津出身、在住の作家さんの本の展開、焼津に関連ある作品や商品の紹介などにも力をいれている地域密着型書店です！本、雑誌だけでなく文具、雑貨、宝くじも取り扱っております。,,,100台,,,054-629-4848,,,,https://m.facebook.com/yaizuyajimaya/,一般募集で情報提供いただいた情報です。,お買い物,その他買物,,,無,,,,,,,有,,,,,,,,shop
222127,2024900004,静岡県,焼津市,西洋菓子　ラヴィエベル,セイヨウガシ　ラヴィエベル,,,静岡県焼津市祢宜島35-3,,34.8427694,138.3059996,日火水木金土祝,10:00,19:00,10:00～19:00 月曜日が祝日の場合翌日休業,,,地元焼津の卵や国産小麦、発酵バターなど最高級の素材を使用しながらもなるべくお求め安い価格でご提供できるよう日々努力しています。,,,普5台,,,054-623-7203,,,,http://lavieestbelle2002.com/,一般募集で情報提供いただいた情報です。,お買い物,お菓子,月,,有,,〇,,,,,有,,,,,,,,shop
222127,2024900005,静岡県,焼津市,エステルームRuby,エステルームルビー,,,静岡県焼津市小土644-7,,34.8658946,138.2975507,日月水木金土祝,09:30,18:00,09:30～18:00 第1.3.5月曜日定休日,,"フェイシャルエステ4,840円～、ボディエステ8,800円～、出張着付け7,150円～",1997年オープン、今夏27年を迎えます。エステティックと着付けのお店です。都度払い制なので、お気軽にエステをご体験くださいね。,,,普3台,,,054-620-2022,,,,https://lin.ee/Jbi4530,一般募集で情報提供いただいた情報です。,体験・見どころ,見学・体験,火,,無,,,,,,,有,,,,,,,,rocket
222127,2024900006,静岡県,焼津市,ベトナム料理Suika chan,ベトナムリョウリ　スイカ　チャン,,,静岡県焼津市本町3-5-11,,34.8654959,138.3222009,日火水木金土祝,11:30,21:00,11:30～21:00 ,,,本格的なベトナム料理のお店です。,,,昭和通り共用駐車場,,,054-374-9350,,,,https://vietnam-suikachan.com/76332/,一般募集で情報提供いただいた情報です。,お食事,その他料理,月,20人,無,,,,,,,有,,,,,,,,restaurant
222127,2024900007,静岡県,焼津市,きさらぎ,キサラギ,,,静岡県焼津市八楠2-25-13,,34.8817291,138.3073297,日月火水金土祝,11:00,22:00,11:00～22:00 日祝日11時～ 14時、16時～21時　平日14時～16時まで閉店　各終了時間30分前オーダーストップ,,各種定食1760円から　コース料理4400円から　豊富なメニュー,日本料理店　新鮮なお魚料理から肉料理、麺類、ピザなど豊富なメニューを取り揃えています。美味しい地酒もあります。個室でゆっくりお食事をお楽しみください。焼津旅行の際にはぜひお越しください。,,,普10台,,,054-627-8426,,,,https://www.instagram.com/kisaragi_komomo/,一般募集で情報提供いただいた情報です。,お食事,和食,木,45人,無,,,,,,,有,,,,,マグロ;カツオ;桜エビ;シラス;サバ,,,restaurant
222127,2024900008,静岡県,焼津市,有限会社さくらい,サクライ,,,静岡県焼津市下小田５３５－1,,34.8366912,138.322514,日月火木土祝,08:00,00:20,08:00～00:20 ,,,地元磯自慢、初亀など全国のお酒をあつかっています。,,,5台,,,054-624-4336,,,,,一般募集で情報提供いただいた情報です。,お買い物,お酒,水,,有,〇,〇,,,,,無,,,,,,,,shop
222127,2024900009,静岡県,焼津市,くすかみ呉服店,クスカミゴフクテン,,,静岡県焼津市西小川5-2-15,,34.8589895,138.3079817,日月木金土祝,10:00,18:30,10:00～18:30 ,,,新しい着物を作ったり昔の着物が甦る様に手を加えたり着物の事ならなんでも相談して下さいね。夏は魚河岸シャツ用の生地も販売しております。,,,店舗前3台。二軒隣に4台。,,,054-629-2991,,,,www.kusukami.jp,一般募集で情報提供いただいた情報です。,お買い物,魚河岸シャツ・染物・衣料,火水,,無,,,,,,,有,,,,,,,,shop
222127,2024900010,静岡県,焼津市,居酒屋日の出,イザカヤヒノデ,,,静岡県焼津市栄町1-2-1日の出ビル一階,,34.8715738,138.3188816,月火金土祝,17:30,22:30,17:30～22:30 金曜日と土曜日は２３時３０分まで営業,,一寸一杯お気軽に　昭和の居酒屋です,創業８０年　戦前から港町焼津を見守る居酒屋日の出です,,,なし,,,090-1754-9792,,,,https://www.instagram.com/hinodebar,一般募集で情報提供いただいた情報です。,お食事,居酒屋,水木,23人,無,,,,,,,有,,,,,マグロ;サバ;ウナギ;シラス;カツオ,,,restaurant
222127,2024900011,静岡県,焼津市,手毬,テマリ,,,静岡県焼津市大住1085-1,,34.8463904,138.2903227,日月火金土木祝,11:00,21:00,11:00～21:00 【定休日】水曜日、第１・3・5木曜日,,,"焼津市唯一の""釜めし専門店""！『出汁、具沢山、お米、直炊き』にこだわった 釜めしをお作りしております。釜めし以外にも焼津や御前崎であがった新鮮なお刺身、手毬でしか味わえない一品料理もご用意しております。",,,普通車15台,,,054-623-5296,,,,https://temari19901212.owst.jp/,一般募集で情報提供いただいた情報です。,お食事,和食,水木,36人,無,,,,,,,有,,,,,マグロ;ウナギ;カツオ;桜エビ,,,restaurant
222127,2024900012,静岡県,焼津市,さいとう農園　カフェtete,サイトウノウエン　カフェテテ,,,静岡県焼津市大島1329,,34.8197851,138.2957706,木金土,11:00,16:00,11:00～16:00 カフェ11：00～　ランチ11：30～　,,野菜たっぷりveganランチ　1650円～　／　　デザートセット　770円～,農薬を使わず、優しい気持ちで野菜を育てている 「さいとう農園」のcafe。自家製米糀などを使って作る「ココロと身体に優しい」 野菜たっぷりのveganランチ　veganスイーツです。,,,普通8台　/ 乗り合わせのご協力をお願いしています,,,070-8394-6869,,,,https://www.saitounouen-yaizu.com/,一般募集で情報提供いただいた情報です。,お食事,喫茶店・カフェ,日月火水,25人,無,,,,,,,有,,,,,,,,restaurant
222127,2024900013,静岡県,焼津市,鶏笑焼津駅前店,トリショウヤイズエキマエテン,,,静岡県焼津市栄町1-12-8,,34.8701519,138.3164387,日月水土金木祝,11:00,20:00,11:00～20:00 ,,,焼津駅から徒歩で2分！からあげグランプリ最高金賞受賞！国産チキン100% 中津しょうゆ味は絶品です！オリジナルの焼津塩唐揚げもぜひお試しくださいませ。,,,普通車2台、軽1台,,,054-628-7643,,,,https://www.instagram.com/torishou.yaizu,一般募集で情報提供いただいた情報です。,お買い物,その他買物,火,,有,,〇,,,,店内入り口は、少し段差ありますが、スロープになっています。入店の際にはお手伝いいたします。,有,,,,,,,,shop
222127,2024900014,静岡県,焼津市,天ぷら割烹　齋とう,テンプラカッポウ　サイトウ,,,静岡県焼津市西小川2-4-19ジュネス登呂田101,,34.859139,138.3110456,日火水金木土祝,18:00,21:30,18:00～21:30 金土日祝 昼営業あり12:00～14:30,,"コース料理　花5,000円 月7,000円 雪9,000円",カウターで揚げたての天ぷらが出てきます。揚げたての天ぷらはとても贅沢な気分を味わえます！お酒は店主がお勧めする　日本酒やワインが天ぷらにとの相性が良いです。是非、御予約お待ちしております！,,,店舗前５台　店舗裏10数台,,,054-397-6753,,,,https://tenpura-saitou.com,一般募集で情報提供いただいた情報です。,お食事,和食,月,14人,有,,,,,,,有,,,,,マグロ;桜エビ;シラス;サバ;カツオ;ウナギ,,,restaurant
222127,2024900015,静岡県,焼津市,会席料理　味彩,カイセキリョウリ　アジサイ,,,静岡県焼津市田尻北1227-2,,34.8402328,138.3299491,日月水木金土祝,11:30,21:00,11:30～21:00 11時30分～14時17時30分～21時  夜のご予約は事前予約のみ　月に一度第３週目火曜と水曜連休,,"平日ランチ　限定20食　花籠弁当　会席コース3,300円から　4,300円のコースからは事前予約が必要",座敷の個室ですので　ゆっくりお食事楽しめます。,,,10台,,,054-623-2875,,,,,一般募集で情報提供いただいた情報です。,お食事,和食,火水,25人,無,,,,,,,無,,,,,マグロ,,,restaurant
222127,2024900016,静岡県,焼津市,大國家,オオクニヤ,,,静岡県焼津市栄町1-3-7,,34.8709038,138.3190081,日月木金土祝,10:00,17:00,10:00～17:00 ,,,創業は明治35年「美味しいお菓子は人を笑顔にする」というモットーのもと、最高級の原料を使い、添加物などを一切使用せずに幅広い年代の方に喜ばれる商品を製造しています。,,,3台,,,054-628-2212,,,,https://r.goope.jp/ok2212/,一般募集で情報提供いただいた情報です。,お買い物,お菓子,火水,,無,,,,,,,有,,,,,,,,shop
222127,2024900017,静岡県,焼津市,食楽えんや,ショクラクエンヤ,,,静岡県焼津市石津120,,34.8426398,138.3108038,日火水木金土祝,17:30,23:00,"17:30～23:00 お昼の会食は2,500円からご予約のみでうけたわまっております",,,地のもの、季節のものからリーズナブルな居酒屋メニューまで取り揃えてございます。,,,店前4台、西隣14台駐車場完備,,,054-623-0151,,,,https://www.instagram.com/yaizu_enya,一般募集で情報提供いただいた情報です。,お食事,居酒屋,月,34人,無,,,,,,,有,,,,,マグロ;カツオ;サバ,,,restaurant
222127,2024900018,静岡県,焼津市,スギヤマ時計店,スギヤマトケイテン,,,静岡県焼津市栄町6-2-1,,34.8687867,138.3175287,日月火木金土祝,10:00,18:30,10:00～18:30 ,,,創業1933年の時計、宝飾、メガネ専門店です。難しい電池交換も承ります。,,,普4台,,,054-628-4576,,,,http://www2.wbs.ne.jp/~s-watch/,一般募集で情報提供いただいた情報です。,お買い物,その他買物,水,,無,,,,,,,有,,,,,,,,shop
222127,2024900019,静岡県,焼津市,カフェセレサ,カフェセレサ,,,静岡県焼津市三ケ名1194-4,,34.8634064,138.3051403,水木金土祝日,11:00,17:30,11:00～17:30 ,,コーヒー600円から　ケーキ600円から,焼津文化センターそば、焼津青島街道沿いの一軒家。手作りケーキとミカフェートのコーヒーをご用意してお待ちしております。パスタなど軽食もあります。,,,店西側10台、東側3台,,,054-626-4098,,,,,一般募集で情報提供いただいた情報です。,お食事,喫茶店・カフェ,月火,12人,無,,,,,,,無,,,,,,,,restaurant
222127,2024900020,静岡県,焼津市,キーマン静岡,キーマンシズオカ,,,静岡県焼津市祢宜島251-1,,34.8409731,138.3078986,日月火水木金土祝,10:00,18:00,10:00～18:00 出張作業は24時間対応,,"合鍵500円～ディンプルキー3,000円",鍵と錠の専門店。合鍵からカギのトラブル出張対応。店舗は、かっぱ寿司焼津店様横、ホームセンターDCM焼津店様向かいにございます。店舗営業時間は10時から18時。鍵のトラブルなどの出張作業は24時間,,,店舗前３台駐車可能,,,054-668-9506,,,,https://www.keyman-s.com/,一般募集で情報提供いただいた情報です。,お買い物,その他買物,,,無,,,,,,,無,,,,,,,,shop
222127,2024900021,静岡県,焼津市,100% Jamaica Blue Mountain Coffee & Chocolate LENY,レニー,,,静岡県焼津市本町4-710-19,,34.8637698,138.3211327,日月火木金土祝,09:00,18:00,09:00～18:00 土日祝日は7:00～18:00営業　水曜日が祝日の場合は翌木曜日が店休日,,,店長の母国ジャマイカから空輸でブルーマウンテンコーヒー生豆とカカオ豆を日本に輸入、焼津の店舗で加工・製造しています。100％ブルーマウンテンコーヒーとジャマイカ産カカオ豆オンリーのチョコレートです。,,,店舗前4台,,,054-625-8770,,,,https://leny.coffee,一般募集で情報提供いただいた情報です。,お食事,喫茶店・カフェ,水,8人,無,,,,,,,有,,,,,,,,restaurant
222127,2024900022,静岡県,焼津市,かつ一,カツイチ,,,静岡県焼津市西島345-314,,34.8009206,138.2613315,月日火木金土祝,11:00,19:00,11:00～19:00 (14:00～17:00準備中)　第一、第三木曜日定休日,,平日、土曜日ランチ1000円～,平日と土曜日はお得なランチやってます。,,,普5台,,,054-622-7333,,,,https://www.instagram.com/katuichi_yaizu,一般募集で情報提供いただいた情報です。,お食事,和食,水木,20人,有,,〇,,,,,有,,,,,,,,restaurant
222127,2024900023,静岡県,焼津市,すずき菓子舗,スズキカシホ,,,静岡県焼津市高新田1906-1,,34.795864,138.3047511,日月火木金土祝,10:00,19:00,10:00～19:00,,,創業41年、昔ながらの和菓子と、和を取り入れた創作洋菓子を中心に販売しています。 ,,,5台,,,054-622-2330,,,,https://www.instagram.com/suzuki.kashiho,一般募集で情報提供いただいた情報です。,お買い物,お菓子,水,,有,,〇,,,,,有,,,,,,,,shop
222127,2024900024,静岡県,焼津市,酒季の蔵,シュキノクラ,,,静岡県焼津市焼津3-10-8,,34.8633095,138.3092529,月火水木金土祝,18:00,03:00,18:00～03:00,,,みなさまのおかげで、今年で10周年を迎えました。これからも焼津の居酒屋 酒季の蔵を よろしくお願いします。,,,普通車4台,,,054-627-2527,,,,,一般募集で情報提供いただいた情報です。,お食事,居酒屋,日,30人,無,,,,,,,無,,,,,マグロ;カツオ;桜エビ;シラス;サバ,,,restaurant
222127,2024900025,静岡県,焼津市,アトリエよし,アトリエヨシ,,,静岡県焼津市柳新屋958-3,,34.8589901,138.2907507,月火水木金,10:00,19:00,10:00～19:00 土日も日程により開催可能。お問い合わせ下さい。,,"対面レッスン4,500円　オンラインレッスン4,500～5,000円（材料有無により変動）",焼津では珍しいグルテンフリーの米粉パン教室です。プライベートレッスンなのでパン作り始めての方でも安心！,,,あり,,,090-8547-3246,,,,https://atelieryoshi.jp/lesson/,一般募集で情報提供いただいた情報です。,体験・見どころ,見学・体験,土日祝金,,無,,,,,,,有,,,,,,,,rocket
222127,2024900026,静岡県,焼津市,三福,サンプク,,,静岡県焼津市大住130-4,,34.8503222,138.290955,日月水木金土祝,10:30,19:00,10:30～14:00、17:00～19:00 ただし、第３月曜日と木曜日のみ10:30～14:00営業のみ 平日中休み有り,,お弁当６００円から　お惣菜２００円前後,和食の職人が丁寧に,,,店舗前に3台、道路挟んで2台,,,080-3626-7935,,,,https://www.instagram.com/sanfushaojin,一般募集で情報提供いただいた情報です。,お食事,その他料理,火,5人,無,,,,,,,有,,,,,ウナギ,,,restaurant
222127,2024900027,静岡県,焼津市,福与時計店,フクヨトケイテン,,,静岡県焼津市栄町4丁目2-1,,34.8701419,138.3197478,日火水木金土祝,10:00,19:00,10:00～19:00,,,焼津の地に1935年より創業！信頼とアフターサービスをモットーに営業中。電池交換、メガネの調整などご相談下さい。,,,なし　商店街の駐車スペースをご利用ください,,,054-628-2474,,,,https://happygive.base.shop,一般募集で情報提供いただいた情報です。,お買い物,その他買物,月,,無,,,,,,,有,,,,,,,,shop
222127,2024900028,静岡県,焼津市,酒肴本丸　駅前栄町店,サケサカナホンマルエキマエサカエチョウテン,,,静岡県焼津市栄町1丁目3-6,,34.8709532,138.3192906,月火水土木金祝,17:00,23:00,17:00～23:00 日曜が祝前日の場合営業、翌日の祝日がお休み,,,2020年新規オープン!素材に一手間加え長所を生かしたお造りや、備長炭使用の串焼き、その他天ぷらや一品もの用意しています。御来店お待ちしております。,,,普2台,,,054-908-9936,,,,https://www.instagram.com/honmaru.yaizu,一般募集で情報提供いただいた情報です。,お食事,居酒屋,日,36人,無,,,,,,,有,,,,,マグロ;カツオ;桜エビ;シラス;サバ;ウナギ,,,restaurant
222127,2024900029,静岡県,焼津市,食事処すずき,ショクジドコロスズキ,,,静岡県焼津市西焼津32-1,,34.8586374,138.2832599,日火水木金土祝,11:30,22:00,11:30～22:00,,,地元の方に愛されて15年♪美味しいお寿司と海鮮料理を揃えてお待ちしてます。,,,店の前/普2台、その他数台,,,090-3589-1564,,,,,一般募集で情報提供いただいた情報です。,お食事,すし,月,20人,無,,,,,,,無,,,,,マグロ;桜エビ;サバ,,,restaurant
222127,2024900030,静岡県,焼津市,SB石津接骨院,エスビーイシズセッコツイン,,,静岡県焼津市石津253-16,,34.838628,138.3107941,日月火木金土祝,08:30,20:00,08:30～20:00 土日祝　9:00～20:30,,,4/8新規オープン！癒しの空間を御提供！身も心もリラックスできるよう1人1人の患者様に寄り添って施術していきます！買い物帰り、仕事終わり、学校帰りに是非一度立ち寄ってみて下さい♪　,,,3台　隣併設店舗共有5台,,,054-639-5911,,,,https://sb.ishizu.com,一般募集で情報提供いただいた情報です。,スポーツその他,その他施設,水,,有,,,,,手摺あり,,有,,,,,,,,commercial
222127,2024900031,静岡県,焼津市,自慢のお米 又平商店,ジマンノオコメマタヒラショウテン,,,静岡県焼津市中里566,,34.8816096,138.3144164,月火水木金土,09:00,18:00,09:00～18:00,,,五つ星お米マイスターの資格を持つ店主が厳選したお米がずらりと並びます。特に力を入れているのは、無農薬・減農薬にこだわった安全で安 心なお米 。分づき米にも店頭で対応可能。,,,10台,,,054-628-2008,,,,https://matahira-shoten.com,一般募集で情報提供いただいた情報です。,お買い物,その他買物,日祝,,無,,,,,,,有,,,,,,,,shop
